nom_commune,code_insee,type_bien,loyer_m2,loyer_m2_min,loyer_m2_max,niveau_prediction,nb_obs_commune,r2_adj,population,superficie_km2,region,departement,latitude,longitude
Villefranche-sur-Saône,69264,Appartement,10.9119126349241,8.4227170157473,14.1367491190314,commune,5850,0.75553318318703,35913,9,Auvergne-Rhône-Alpes,Rhône,45.989,4.715
Saint-Jean-de-Braye,45284,Appartement,11.7314685457802,10.2353891886408,13.4462258057924,commune,2975,0.880215000070757,21700,14,Centre-Val de Loire,Loiret,47.912,1.971
Beaupréau-en-Mauges,49023,Appartement,9.13263807841478,7.30558042107433,11.416625848196,commune,771,0.709713274360266,23639,36,Pays de la Loire,Maine-et-Loire,47.209,-0.982
Les Sables-d'Olonne,85194,Appartement,12.3527818299714,9.68178296152055,15.760652717101,commune,2141,0.757268490540452,48402,9,Pays de la Loire,Vendée,46.497,-1.784
Challans,85047,Appartement,11.7106024689549,9.70997416731259,14.1234371814861,commune,1089,0.834492743026833,22494,65,Pays de la Loire,Vendée,46.845,-1.879
Le Perreux-sur-Marne,94058,Appartement,19.7416779809511,16.1355101907595,24.1537977353057,commune,3214,0.883014097385003,34213,4,Île-de-France,Val-de-Marne,48.841,2.508
Vannes,56260,Appartement,12.1479212296935,9.8482530158737,14.9845855874111,commune,8403,0.874569443294543,54420,33,Bretagne,Morbihan,47.658,-2.761
Limoges,87085,Appartement,10.0877614027147,8.08463559424206,12.5872006142834,commune,30815,0.826520142265362,129760,80,Nouvelle-Aquitaine,Haute-Vienne,45.826,1.26
Muret,31395,Appartement,11.500532143856,9.62362826486621,13.7434900800071,commune,2587,0.848752257323837,25060,58,Occitanie,Haute-Garonne,43.462,1.331
Gap,05061,Appartement,11.2400252066364,9.11078189361132,13.8668852049255,commune,6105,0.85735379829528,40500,109,Provence-Alpes-Côte d'Azur,Hautes-Alpes,44.559,6.08
Saint-Priest,69290,Appartement,13.379931509059,11.016548252234,16.2503320539449,commune,3070,0.777489633807646,48822,30,Auvergne-Rhône-Alpes,Rhône,45.695,4.936
Nevers,58194,Appartement,9.00790768821794,7.02946058521798,11.5431902541836,commune,7167,0.755125936590966,32830,17,Bourgogne-Franche-Comté,Nièvre,46.988,3.158
Roubaix,59512,Appartement,12.2030482400269,9.82828339351542,15.1516170612942,commune,7691,0.799854580075108,98892,13,Hauts-de-France,Nord,50.691,3.174
Nîmes,30189,Appartement,11.673637084584,9.11009594788833,14.9585474798608,commune,26467,0.810211680881295,148104,161,Occitanie,Gard,43.837,4.36
Mantes-la-Ville,78362,Appartement,14.7564014698335,12.6370154485427,17.2312351144602,commune,2009,0.84099812873964,21376,6,Île-de-France,Yvelines,48.978,1.714
Mantes-la-Jolie,78361,Appartement,14.351032202714,12.1763335232916,16.914133050756,commune,6374,0.847632245171746,44539,9,Île-de-France,Yvelines,48.989,1.715
Oyonnax,01283,Appartement,9.73273812344069,7.36698857180677,12.8581971393291,commune,2420,0.783876827549237,22277,36,Auvergne-Rhône-Alpes,Ain,46.258,5.656
Pantin,93055,Appartement,20.3111845607215,15.9058540547924,25.9366279131295,commune,3025,0.822518498724116,60800,5,Île-de-France,Seine-Saint-Denis,48.897,2.401
Saint-Ouen-l'Aumône,95572,Appartement,15.6364521255123,13.2297621440861,18.4809547148761,commune,1612,0.841976286161603,25023,14,Île-de-France,Val-d'Oise,49.044,2.106
Valenciennes,59606,Appartement,11.4198135238079,9.22438232644915,14.1377640586964,commune,11888,0.82549745752208,42991,14,Hauts-de-France,Nord,50.358,3.524
Neuilly-Plaisance,93049,Appartement,18.7047282371321,15.5755547306051,22.4625616535827,commune,1527,0.837037751341004,21415,3,Île-de-France,Seine-Saint-Denis,48.861,2.506
Mont-de-Marsan,40192,Appartement,9.5665534622537,7.92420031369751,11.5492972821449,commune,4722,0.832324317632665,30674,37,Nouvelle-Aquitaine,Landes,43.891,-0.501
Fougères,35115,Appartement,9.33712842394485,7.29559517975681,11.9499458313071,commune,3843,0.781748233025317,20653,10,Bretagne,Ille-et-Vilaine,48.352,-1.204
Arcueil,94003,Appartement,20.4282059771244,16.5004278517195,25.2909562827083,commune,1545,0.847662329901434,21557,2,Île-de-France,Val-de-Marne,48.806,2.337
Thionville,57672,Appartement,13.0038004271093,10.1883190036286,16.5973234139864,commune,6220,0.779379020551591,42163,50,Grand Est,Moselle,49.358,6.168
Metz,57463,Appartement,10.86748155168,8.51940637525111,13.8627211890245,commune,21971,0.838312575583868,120874,42,Grand Est,Moselle,49.12,6.176
Clermont-Ferrand,63113,Appartement,11.2802298327451,9.07191606065159,14.0260981504732,commune,40339,0.845238232945893,147327,43,Auvergne-Rhône-Alpes,Puy-de-Dôme,45.78,3.086
Saintes,17415,Appartement,10.0570212250059,8.1872169372545,12.3538531707866,commune,3484,0.816409143874464,25518,46,Nouvelle-Aquitaine,Charente-Maritime,45.744,-0.634
Melun,77288,Appartement,14.8789347531544,12.5799161844038,17.5981060718903,commune,7073,0.860725888664486,42367,8,Île-de-France,Seine-et-Marne,48.54,2.661
Sannois,95582,Appartement,16.5903040528431,13.4073271630084,20.5289380365969,commune,1287,0.794059327032024,26768,5,Île-de-France,Val-d'Oise,48.972,2.256
Troyes,10387,Appartement,10.971322113988,8.45954266620067,14.2288908134253,commune,14839,0.80312332930439,62782,13,Grand Est,Aube,48.298,4.074
Gradignan,33192,Appartement,13.7315419144898,11.5547832921879,16.3183712391103,commune,2349,0.902525343037122,25835,16,Nouvelle-Aquitaine,Gironde,44.772,-0.608
Bègles,33039,Appartement,12.9105853073231,10.6874928358824,15.5961005576576,commune,2019,0.814007836881638,30813,11,Nouvelle-Aquitaine,Gironde,44.808,-0.544
Sèvremoine,49301,Appartement,8.60149636934297,6.56848434601035,11.2637460781586,commune,298,0.651179614239625,25806,28,Pays de la Loire,Maine-et-Loire,47.124,-0.994
Brest,29019,Appartement,10.8860743539405,8.8296124504251,13.4214967536673,commune,27666,0.837057046845836,139619,49,Bretagne,Finistère,48.391,-4.485
Clichy,92024,Appartement,22.7081658681615,17.9368303275521,28.748713550791,commune,5144,0.859617312558725,64849,3,Île-de-France,Hauts-de-Seine,48.903,2.305
Chemillé-en-Anjou,49092,Appartement,8.88659459517736,6.97017951979933,11.329918157016,commune,677,0.698967469892699,21386,49,Pays de la Loire,Maine-et-Loire,47.215,-0.733
Deuil-la-Barre,95197,Appartement,17.0932922504095,14.0156119860307,20.8467985735568,commune,1535,0.824731886506072,22510,4,Île-de-France,Val-d'Oise,48.975,2.328
Grigny,91286,Appartement,13.9841298703191,11.2838264938512,17.3306358739664,commune,736,0.790989976877648,27257,5,Île-de-France,Essonne,48.656,2.385
Roanne,42187,Appartement,8.49629926080171,6.54781647690365,11.0246066583765,commune,10724,0.734479441685891,34762,16,Auvergne-Rhône-Alpes,Loire,46.034,4.073
Blois,41018,Appartement,10.5008057406924,8.60736724220592,12.8107606078509,commune,7997,0.835471755169676,46813,38,Centre-Val de Loire,Loir-et-Cher,47.589,1.337
Lannion,22113,Appartement,8.97983314475183,7.29886546871244,11.0479366489554,commune,1931,0.796204123372133,20344,48,Bretagne,Côtes-d'Armor,48.732,-3.459
Mons-en-Barœul,59410,Appartement,12.9971628379088,10.7694076507881,15.6857505364055,commune,1360,0.815270414736864,21467,3,Hauts-de-France,Nord,50.643,3.11
Champs-sur-Marne,77083,Appartement,16.5718888570178,13.7981967256929,19.9031442839181,commune,1436,0.861968872084556,25695,8,Île-de-France,Seine-et-Marne,48.853,2.603
Montélimar,26198,Appartement,10.350713548287,8.03075451346336,13.3408723649913,commune,7580,0.752969382403119,40399,46,Auvergne-Rhône-Alpes,Drôme,44.557,4.75
Orléans,45234,Appartement,11.8980201689691,9.88019197094804,14.3279487238153,commune,25939,0.875315492017577,116617,28,Centre-Val de Loire,Loiret,47.903,1.909
Pertuis,84089,Appartement,12.7846888543826,10.2034933794776,16.0188538400114,commune,2226,0.758659650076091,20012,59,Provence-Alpes-Côte d'Azur,Vaucluse,43.695,5.503
Charleville-Mézières,08105,Appartement,8.89374911948,6.94238584063915,11.3936008766936,commune,8509,0.733207188679116,46398,32,Grand Est,Ardennes,49.76,4.72
Quimper,29232,Appartement,10.7293831216051,8.78470941463267,13.1045498190787,commune,9651,0.820028366599676,63642,84,Bretagne,Finistère,47.996,-4.102
Vernon,27681,Appartement,12.992391155057,10.7412356279753,15.7153454008924,commune,3062,0.848583801270915,24543,34,Normandie,Eure,49.093,1.486
Villeneuve-d'Ascq,59009,Appartement,13.267648267858,10.6680258958095,16.5007558360673,commune,3259,0.851466654728724,62067,28,Hauts-de-France,Nord,50.62,3.132
Alès,30007,Appartement,10.0148342224189,7.88276032192372,12.7235765653797,commune,6112,0.750806225973222,43892,23,Occitanie,Gard,44.125,4.077
Perpignan,66136,Appartement,10.7796211615157,8.75142683062733,13.2778613858865,commune,23915,0.796459157617375,119656,68,Occitanie,Pyrénées-Orientales,42.699,2.894
Aix-en-Provence,13001,Appartement,16.9989936016792,13.2985764656019,21.7290763577117,commune,43970,0.852735815951803,147478,188,Provence-Alpes-Côte d'Azur,Bouches-du-Rhône,43.53,5.447
Échirolles,38151,Appartement,12.7398436922064,10.129341185513,16.0231168374482,commune,3880,0.800127937995368,36849,8,Auvergne-Rhône-Alpes,Isère,45.148,5.717
Agen,47001,Appartement,9.80789316175034,7.8234866611186,12.2956390723308,commune,9624,0.799079761576331,32485,12,Nouvelle-Aquitaine,Lot-et-Garonne,44.203,0.616
Vienne,38544,Appartement,10.75451266832,8.23882317916345,14.0383572044084,commune,5867,0.788503080676095,31051,23,Auvergne-Rhône-Alpes,Isère,45.526,4.875
Évry-Courcouronnes,91228,Appartement,15.3772997718612,11.8717193310293,19.9180372850999,commune,3742,0.73203691656306,66177,9,Île-de-France,Essonne,48.624,2.429
Haguenau,67180,Appartement,11.8226358883738,9.46320177513262,14.7703412302127,commune,5736,0.809155628412496,35715,184,Grand Est,Bas-Rhin,48.817,7.788
Aix-les-Bains,73008,Appartement,14.4991296327412,11.4079561684548,18.4279074185387,commune,5044,0.810228745046543,31874,16,Auvergne-Rhône-Alpes,Savoie,45.689,5.915
Lagny-sur-Marne,77243,Appartement,15.6030853591051,13.0771530248069,18.6169170202178,commune,2379,0.857021738177216,21191,6,Île-de-France,Seine-et-Marne,48.878,2.706
Douai,59178,Appartement,10.528050946174,8.44901055115611,13.1186789333656,commune,6720,0.776288991850236,39648,17,Hauts-de-France,Nord,50.368,3.08
Concarneau,29039,Appartement,11.3237023064278,9.19840357147624,13.9400530677107,commune,1363,0.767045858515376,20607,41,Bretagne,Finistère,47.871,-3.919
Torcy,77468,Appartement,16.2446176850918,13.7155743326814,19.2399966150894,commune,1463,0.843283512148524,22444,6,Île-de-France,Seine-et-Marne,48.849,2.652
Épernay,51230,Appartement,9.76302756426137,7.699268446695,12.3799693283124,commune,3803,0.754482734639173,22001,23,Grand Est,Marne,49.044,3.959
Antony,92002,Appartement,20.0213074226255,15.9588727040904,25.1178612890707,commune,5153,0.860192566683624,63232,10,Île-de-France,Hauts-de-Seine,48.754,2.296
Ivry-sur-Seine,94041,Appartement,20.2220625198486,16.2205529410301,25.2107196371996,commune,4384,0.852845053541877,64001,6,Île-de-France,Val-de-Marne,48.812,2.388
Garges-lès-Gonesse,95268,Appartement,16.7954567625023,12.7337758680775,22.1526883136254,commune,566,0.735983653078652,42841,5,Île-de-France,Val-d'Oise,48.972,2.401
Rezé,44143,Appartement,12.485099755182,10.57463243623,14.7407218961852,commune,2942,0.828957258644164,42998,16,Pays de la Loire,Loire-Atlantique,47.191,-1.569
Saint-Gratien,95555,Appartement,17.8432701558774,14.431258526812,22.0619905924419,commune,1010,0.837941113933706,20866,3,Île-de-France,Val-d'Oise,48.971,2.283
Thonon-les-Bains,74281,Appartement,14.0930001895871,11.3442752519232,17.5077428864422,commune,5892,0.84107238122061,37027,16,Auvergne-Rhône-Alpes,Haute-Savoie,46.373,6.478
Saint-Médard-en-Jalles,33449,Appartement,12.8505739384724,10.9233830070944,15.1177753669257,commune,1247,0.80311370088749,32538,85,Nouvelle-Aquitaine,Gironde,44.896,-0.717
Couëron,44047,Appartement,12.1520887858726,10.4944124029241,14.0716084131193,commune,1015,0.862230736543765,23057,49,Pays de la Loire,Loire-Atlantique,47.212,-1.728
Auxerre,89024,Appartement,12.0470098938228,9.9177597159386,14.633390154495,commune,7016,0.83282684326481,34778,50,Bourgogne-Franche-Comté,Yonne,47.796,3.57
Épinal,88160,Appartement,9.00994938335355,7.12022941269239,11.4012039760804,commune,6631,0.781051668228764,32285,59,Grand Est,Vosges,48.175,6.45
Dieppe,76217,Appartement,10.2474853298254,8.1221141701325,12.9290174190291,commune,4006,0.774533946948157,28358,12,Normandie,Seine-Maritime,49.923,1.078
Ris-Orangis,91521,Appartement,15.9981996081317,13.7088310895,18.6698916217342,commune,1748,0.849584142573575,29825,8,Île-de-France,Essonne,48.654,2.416
Denain,59172,Appartement,10.0479247672357,8.20905140354752,12.2987160348878,commune,1052,0.696007102954726,20640,12,Hauts-de-France,Nord,50.326,3.394
Colmar,68066,Appartement,11.6544928564677,9.30368843634684,14.5992855060384,commune,10025,0.827917063052694,67730,66,Grand Est,Haut-Rhin,48.079,7.358
Ermont,95219,Appartement,17.2135155746207,14.5416536241751,20.3763014919507,commune,2589,0.863917745142601,28987,4,Île-de-France,Val-d'Oise,48.992,2.259
Chalon-sur-Saône,71076,Appartement,11.5415853012553,9.18602031432508,14.5011862273397,commune,10088,0.816824133860833,45031,15,Bourgogne-Franche-Comté,Saône-et-Loire,46.781,4.854
Épinay-sur-Seine,93031,Appartement,16.5767147472331,12.4432298100575,22.0832915573922,commune,1807,0.70218328113329,53489,5,Île-de-France,Seine-Saint-Denis,48.952,2.313
Noisy-le-Grand,93051,Appartement,17.6339693364269,14.3463795934496,21.674937048231,commune,5096,0.80821479537003,70374,13,Île-de-France,Seine-Saint-Denis,48.849,2.552
Brunoy,91114,Appartement,16.6404277216035,14.0022330947083,19.7756909833588,commune,2172,0.863519654436197,25423,7,Île-de-France,Essonne,48.698,2.504
Décines-Charpieu,69275,Appartement,13.6090225882415,11.2397771635003,16.4776839534416,commune,2171,0.805845584212117,29731,17,Auvergne-Rhône-Alpes,Rhône,45.768,4.957
Valence,26362,Appartement,10.8247435075912,8.61046912841947,13.6084422645908,commune,12029,0.796032775857837,64483,37,Auvergne-Rhône-Alpes,Drôme,44.933,4.892
Angers,49007,Appartement,12.9620335280301,10.2641565431959,16.3690326111747,commune,25999,0.838660556626736,157175,44,Pays de la Loire,Maine-et-Loire,47.471,-0.548
Choisy-le-Roi,94022,Appartement,17.9310415958369,14.7412352450981,21.8110794221636,commune,2514,0.828230648235862,46129,5,Île-de-France,Val-de-Marne,48.762,2.41
Draveil,91201,Appartement,16.3079201954975,13.8964723711918,19.1378253414904,commune,1280,0.883974862573358,29173,16,Île-de-France,Essonne,48.682,2.405
Saint-Étienne-du-Rouvray,76575,Appartement,11.1053044332759,8.78025937215012,14.0460300007671,commune,840,0.713428793745454,28508,18,Normandie,Seine-Maritime,49.38,1.108
Villeparisis,77514,Appartement,16.203469512914,13.8749461208212,18.9227707242726,commune,2695,0.862156798841799,26822,8,Île-de-France,Seine-et-Marne,48.94,2.617
Vanves,92075,Appartement,22.8901157781992,18.5771475479426,28.2044053850125,commune,2345,0.898755373146549,28014,2,Île-de-France,Hauts-de-Seine,48.821,2.29
Voiron,38563,Appartement,11.110873595123,8.50298328252436,14.5186116384027,commune,4999,0.794828661019542,20891,22,Auvergne-Rhône-Alpes,Isère,45.363,5.592
Cachan,94016,Appartement,20.1494010989399,16.5906895866439,24.4714580744614,commune,2199,0.875156649243637,30592,3,Île-de-France,Val-de-Marne,48.795,2.334
Tours,37261,Appartement,12.2406879897987,9.97371795647966,15.02292756998,commune,33986,0.868278582280509,137658,33,Centre-Val de Loire,Indre-et-Loire,47.391,0.69
Maisons-Laffitte,78358,Appartement,20.8820924885314,17.1510418395461,25.4247987252954,commune,2895,0.92920837086663,23080,7,Île-de-France,Yvelines,48.946,2.145
Saint-Maur-des-Fossés,94068,Appartement,20.0463421732977,16.0852150286783,24.9829320784623,commune,6831,0.869182073670853,75441,11,Île-de-France,Val-de-Marne,48.803,2.485
Bagneux,92007,Appartement,19.8524399901175,16.0416630249624,24.5684860072129,commune,1992,0.847497601385595,43699,4,Île-de-France,Hauts-de-Seine,48.799,2.304
Le Tampon,97422,Appartement,12.2345537061946,9.86677072538967,15.1705465299385,commune,2843,0.826926317290697,81943,181,La Réunion,La Réunion,-21.278,55.515
Caen,14118,Appartement,11.7490074032029,9.56230209731642,14.4357680353203,commune,32255,0.864617283352038,108200,26,Normandie,Calvados,49.181,-0.373
Orange,84087,Appartement,10.771282228505,8.63213749588591,13.4405320700003,commune,3711,0.755417757956427,28949,74,Provence-Alpes-Côte d'Azur,Vaucluse,44.138,4.807
Manosque,04112,Appartement,10.4423113938298,8.04943102772407,13.5465310368078,commune,4143,0.719724416015004,22926,57,Provence-Alpes-Côte d'Azur,Alpes-de-Haute-Provence,43.834,5.782
Vichy,03310,Appartement,9.93321291652364,7.64900688061317,12.899546357459,commune,6914,0.750895349359158,25789,6,Auvergne-Rhône-Alpes,Allier,46.124,3.428
Bussy-Saint-Georges,77058,Appartement,17.0335650073998,14.4415973649276,20.0907371622163,commune,2267,0.872984215071106,26571,15,Île-de-France,Seine-et-Marne,48.844,2.698
Châtillon,92020,Appartement,21.3541924017667,17.857993274751,25.5348697984113,commune,3200,0.89710755244016,36777,3,Île-de-France,Hauts-de-Seine,48.8,2.29
Chambéry,73065,Appartement,12.99701455132,10.5641220041728,15.9901965521127,commune,12475,0.858840322424237,59856,21,Auvergne-Rhône-Alpes,Savoie,45.566,5.921
Nice,06088,Appartement,17.064922208647,12.6733097156033,22.9783360875838,commune,38703,0.794565214371554,348085,74,Provence-Alpes-Côte d'Azur,Alpes-Maritimes,43.696,7.272
Sainte-Suzanne,97420,Appartement,12.8948943780977,10.4774686193135,15.8700834203205,commune,552,0.72399294639046,24293,58,La Réunion,La Réunion,-20.906,55.608
Bourg-la-Reine,92014,Appartement,21.0153880545393,17.3662483202891,25.4313152119847,commune,2107,0.911210832320301,20810,2,Île-de-France,Hauts-de-Seine,48.779,2.316
Montaigu-Vendée,85146,Appartement,10.7587126382387,8.49003785985231,13.6336138357585,commune,830,0.752930837586124,20605,3,Pays de la Loire,Vendée,46.974,-1.314
Les Pennes-Mirabeau,13071,Appartement,15.2965773220505,12.4497616297445,18.7943580550523,commune,1146,0.776800756810127,22161,34,Provence-Alpes-Côte d'Azur,Bouches-du-Rhône,43.4,5.34
Saint-Chamond,42207,Appartement,9.3399202042687,6.98242568088354,12.4933817284924,commune,3377,0.662530534916305,35068,55,Auvergne-Rhône-Alpes,Loire,45.476,4.513
Lambersart,59328,Appartement,13.8456290287084,11.250650197209,17.0391435019611,commune,2552,0.83211812634937,27121,6,Hauts-de-France,Nord,50.647,3.021
Plaisir,78490,Appartement,16.0532395245221,13.7259133936235,18.7751803352773,commune,2055,0.849705212175664,31375,18,Île-de-France,Yvelines,48.817,1.947
Neuilly-sur-Marne,93050,Appartement,16.4669113083961,13.5293716273393,20.0422588356314,commune,1496,0.829906392276584,37531,7,Île-de-France,Seine-Saint-Denis,48.857,2.528
Cambrai,59122,Appartement,10.2718751858581,8.42864211064318,12.5181990703596,commune,6675,0.791337743516629,31425,18,Hauts-de-France,Nord,50.176,3.235
Compiègne,60159,Appartement,13.2396763905601,10.6848093335284,16.4054430411507,commune,8610,0.855867037054193,40394,53,Hauts-de-France,Oise,49.418,2.826
Villejuif,94076,Appartement,20.1353546063921,15.0829474504491,26.8801907887761,commune,3916,0.741526078375846,57753,5,Île-de-France,Val-de-Marne,48.792,2.363
Athis-Mons,91027,Appartement,16.2896947187761,13.689329923332,19.3840133532508,commune,2168,0.857267550931043,36222,9,Île-de-France,Essonne,48.708,2.389
Combs-la-Ville,77122,Appartement,15.5178088018132,13.4890412552774,17.8517053549244,commune,1270,0.863922282756713,22240,15,Île-de-France,Seine-et-Marne,48.665,2.565
Calais,62193,Appartement,11.3867668018896,8.638731550919,15.0089694808055,commune,7393,0.763070861683169,67380,33,Hauts-de-France,Pas-de-Calais,50.953,1.855
Sarreguemines,57631,Appartement,9.65847408908347,7.7803555188767,11.9899561791445,commune,3988,0.763243173183936,20624,30,Grand Est,Moselle,49.11,7.07
Saint-Ouen-sur-Seine,93070,Appartement,20.1029747137832,15.9523283358546,25.3335803924423,commune,3660,0.851893782406899,53207,4,Île-de-France,Seine-Saint-Denis,48.912,2.334
Tournefeuille,31557,Appartement,12.2726425258128,10.8424896962529,13.8914362647207,commune,3044,0.892320893295604,29439,18,Occitanie,Haute-Garonne,43.583,1.347
Lunel,34145,Appartement,12.0565584439633,9.94428480164786,14.6175018527842,commune,2379,0.808405194310595,26185,24,Occitanie,Hérault,43.679,4.132
Dax,40088,Appartement,12.0990454715032,9.32898908364474,15.6916146014301,commune,3677,0.771523086522379,21347,20,Nouvelle-Aquitaine,Landes,43.709,-1.052
Le Kremlin-Bicêtre,94043,Appartement,20.8996590856846,16.9631363671316,25.7497045619577,commune,2369,0.873691761174506,24380,2,Île-de-France,Val-de-Marne,48.812,2.357
Eaubonne,95203,Appartement,17.1991832076775,14.2227530103773,20.7984982088506,commune,1223,0.805149237237891,25373,4,Île-de-France,Val-d'Oise,48.991,2.28
Clamart,92023,Appartement,20.819899912131,17.0282528607252,25.4558254388461,commune,3807,0.890533796857141,54491,9,Île-de-France,Hauts-de-Seine,48.801,2.263
Cenon,33119,Appartement,12.74075290099,10.8777872761006,14.9227761459106,commune,2166,0.852542926002258,26778,6,Nouvelle-Aquitaine,Gironde,44.858,-0.531
Villiers-sur-Marne,94079,Appartement,17.3635844027153,14.4675600346853,20.8393165528534,commune,2695,0.841882078433859,30669,4,Île-de-France,Val-de-Marne,48.826,2.541
Meaux,77284,Appartement,15.1652694776599,12.699453690451,18.1098655057087,commune,6276,0.835635856596671,55616,15,Île-de-France,Seine-et-Marne,48.958,2.878
Lormont,33249,Appartement,12.5649233600297,10.7504077394618,14.6857033583849,commune,2488,0.866888665467526,23291,8,Nouvelle-Aquitaine,Gironde,44.88,-0.523
Armentières,59017,Appartement,11.6667725084753,9.73693120360699,13.9791047012936,commune,3488,0.769614324250608,25581,6,Hauts-de-France,Nord,50.687,2.882
La Teste-de-Buch,33529,Appartement,13.4439704165864,10.8351155625338,16.6809794984582,commune,1939,0.793034796929986,26556,178,Nouvelle-Aquitaine,Gironde,44.631,-1.149
Lens,62498,Appartement,11.0193429846446,8.94742994973427,13.5710388899822,commune,4453,0.794107561390429,32618,12,Hauts-de-France,Pas-de-Calais,50.429,2.832
Hérouville-Saint-Clair,14327,Appartement,11.7120075661691,9.98241705086838,13.7412733340038,commune,3010,0.88486607263827,22227,11,Normandie,Calvados,49.204,-0.334
Boulogne-sur-Mer,62160,Appartement,10.0982225050757,8.17480580679919,12.4741920691501,commune,8660,0.8082842945766,40910,8,Hauts-de-France,Pas-de-Calais,50.725,1.613
Loos,59360,Appartement,13.1672431235756,11.0205664027598,15.7320672222375,commune,2611,0.843772974608758,23013,7,Hauts-de-France,Nord,50.615,3.015
Montgeron,91421,Appartement,16.5126554953144,14.198035760507,19.2046136596856,commune,1795,0.889263953042289,23800,11,Île-de-France,Essonne,48.704,2.461
Rennes,35238,Appartement,13.3975305027271,10.7460076826329,16.7033031124285,commune,41974,0.847775012445503,225081,50,Bretagne,Ille-et-Vilaine,48.112,-1.68
Anglet,64024,Appartement,13.9164715342651,11.2705736671523,17.1835246087295,commune,3502,0.817520877939247,41153,28,Nouvelle-Aquitaine,Pyrénées-Atlantiques,43.481,-1.515
Gonesse,95277,Appartement,16.1778420991062,13.2260736247589,19.7883803167159,commune,743,0.74720000833396,25963,20,Île-de-France,Val-d'Oise,48.986,2.45
Savigny-sur-Orge,91589,Appartement,16.3799470020796,13.5463746380012,19.8062338419517,commune,2917,0.812594496839705,37371,7,Île-de-France,Essonne,48.68,2.346
Périgueux,24322,Appartement,8.55137302976975,6.64990367440484,10.9965473598861,commune,8868,0.797870244469457,29516,10,Nouvelle-Aquitaine,Dordogne,45.184,0.716
Saint-Martin-d'Hères,38421,Appartement,12.684681581696,10.1401562234084,15.8677187297745,commune,5124,0.777255709989608,38454,9,Auvergne-Rhône-Alpes,Isère,45.184,5.755
Longjumeau,91345,Appartement,16.0558141072585,13.5277419756877,19.0563337998422,commune,1563,0.863373884132849,20620,5,Île-de-France,Essonne,48.694,2.296
Saint-Herblain,44162,Appartement,12.6784124054639,10.8381614041142,14.8311263441789,commune,3935,0.85104552674192,49537,30,Pays de la Loire,Loire-Atlantique,47.211,-1.648
Givors,69091,Appartement,10.5062603482757,8.16108003736804,13.5253552226341,commune,1889,0.693921125367558,20654,17,Auvergne-Rhône-Alpes,Rhône,45.582,4.774
Pontoise,95500,Appartement,16.0948661390362,13.6523030133732,18.974433528156,commune,5176,0.871655440148834,31327,7,Île-de-France,Val-d'Oise,49.051,2.101
Poissy,78498,Appartement,17.423491785973,14.2138230670307,21.3579460349429,commune,3809,0.83542238713951,40016,13,Île-de-France,Yvelines,48.927,2.043
La Madeleine,59368,Appartement,14.0063426505601,11.3821148754596,17.2356048582734,commune,4541,0.838901239798667,22488,3,Hauts-de-France,Nord,50.654,3.074
Avignon,84007,Appartement,11.7947691781034,9.30005688608445,14.9586805402123,commune,15674,0.775895353367695,90330,65,Provence-Alpes-Côte d'Azur,Vaucluse,43.949,4.805
Saint-Pierre,97416,Appartement,13.8552164311045,10.7680481481157,17.8274669385036,commune,3726,0.749084838455398,84077,96,La Réunion,La Réunion,-21.342,55.478
Angoulême,16015,Appartement,10.4478926953803,8.37245177385052,13.0378131427539,commune,8048,0.818938950283691,41086,22,Nouvelle-Aquitaine,Charente,45.648,0.156
Orvault,44114,Appartement,12.7825779738115,10.9436811308257,14.9304697115425,commune,1431,0.878981710158517,27872,28,Pays de la Loire,Loire-Atlantique,47.271,-1.624
Saint-Malo,35288,Appartement,12.0322659695199,9.80112852477471,14.7713014879165,commune,4477,0.830879978051291,47323,37,Bretagne,Ille-et-Vilaine,48.652,-2.023
Menton,06083,Appartement,17.9839334430088,14.0210033656688,23.0669555985192,commune,3186,0.81951021031408,30412,14,Provence-Alpes-Côte d'Azur,Alpes-Maritimes,43.776,7.503
Forbach,57227,Appartement,9.01473369931389,7.21041510241484,11.2705610585899,commune,2667,0.774448568810419,21130,16,Grand Est,Moselle,49.186,6.896
Hénin-Beaumont,62427,Appartement,9.62336582268149,8.09221296790136,11.4442328846879,commune,1730,0.75216706955326,26035,21,Hauts-de-France,Pas-de-Calais,50.419,2.947
Vaulx-en-Velin,69256,Appartement,13.453434199748,10.9503459354515,16.5286916809616,commune,1806,0.803741215155002,52139,21,Auvergne-Rhône-Alpes,Rhône,45.779,4.92
Châteauroux,36044,Appartement,9.33605214492242,7.37652501637958,11.816115238431,commune,6120,0.746903081009,42968,25,Centre-Val de Loire,Indre,46.811,1.691
Saint-Cloud,92064,Appartement,23.6309259092046,18.8496971619099,29.624914104972,commune,2731,0.946627868050522,29727,8,Île-de-France,Hauts-de-Seine,48.844,2.219
L'Haÿ-les-Roses,94038,Appartement,18.3645375365598,15.3801049571101,21.928084357825,commune,1421,0.886681745888273,31392,4,Île-de-France,Val-de-Marne,48.779,2.338
Saint-Dizier,52448,Appartement,10.5758062816298,8.13732788443927,13.7450131167067,commune,2502,0.715469500274196,23068,48,Grand Est,Haute-Marne,48.638,4.948
Sète,34301,Appartement,12.497402964513,9.81733811794516,15.9091068251919,commune,4600,0.782515760168002,44712,42,Occitanie,Hérault,43.402,3.696
Oullins-Pierre-Bénite,69149,Appartement,13.073577430964,10.4333930391225,16.3818640975674,commune,3572,0.799817492834772,27113,4,Auvergne-Rhône-Alpes,Rhône,45.714,4.807
Villiers-le-Bel,95680,Appartement,16.3186768896981,12.9880204773678,20.5034489970513,commune,706,0.782405248441149,28836,7,Île-de-France,Val-d'Oise,49.008,2.388
Villepinte,93078,Appartement,16.4458489117236,13.6958640953555,19.7480016261961,commune,1829,0.826015503179899,38725,10,Île-de-France,Seine-Saint-Denis,48.964,2.534
Grasse,06069,Appartement,13.924735757753,10.6284897714972,18.2432565766051,commune,7400,0.7473074593455,48323,44,Provence-Alpes-Côte d'Azur,Alpes-Maritimes,43.658,6.925
Colombes,92025,Appartement,19.7480848971511,15.6983237821551,24.8425795337718,commune,5355,0.851099632444185,88870,8,Île-de-France,Hauts-de-Seine,48.922,2.254
Schiltigheim,67447,Appartement,12.8423829166049,10.5168887445921,15.6820903008518,commune,4658,0.817563123928109,34129,8,Grand Est,Bas-Rhin,48.605,7.749
Fontenay-sous-Bois,94033,Appartement,20.7574844779041,16.4946206201704,26.1220413474402,commune,2784,0.856597433147016,51812,6,Île-de-France,Val-de-Marne,48.849,2.475
Nogent-sur-Marne,94052,Appartement,21.3174338783042,17.1404283618015,26.5123471574725,commune,3439,0.891266863799795,33472,3,Île-de-France,Val-de-Marne,48.839,2.492
Ajaccio,2A004,Appartement,15.3881807921276,12.1653333345708,19.4648269454559,commune,5437,0.7975052418106,73822,83,Corse,Corse-du-Sud,41.919,8.739
Mandelieu-la-Napoule,06079,Appartement,17.7670670759163,14.3229578203284,22.0393494444341,commune,3030,0.845378485799373,21561,32,Provence-Alpes-Côte d'Azur,Alpes-Maritimes,43.543,6.932
Châtenay-Malabry,92019,Appartement,19.7306850273879,16.7760733806763,23.2056645685878,commune,2950,0.915936893374738,34898,6,Île-de-France,Hauts-de-Seine,48.767,2.278
Aubagne,13005,Appartement,14.1050067660721,11.1332388028354,17.8700214191285,commune,3985,0.765268869965423,47342,55,Provence-Alpes-Côte d'Azur,Bouches-du-Rhône,43.292,5.57
Tassin-la-Demi-Lune,69244,Appartement,14.1435975668246,11.3023802337388,17.699046395125,commune,2883,0.83842128992101,22676,8,Auvergne-Rhône-Alpes,Rhône,45.761,4.777
Dammarie-les-Lys,77152,Appartement,15.0146734901532,12.9923854101885,17.3517343350299,commune,1445,0.906749774296839,22845,10,Île-de-France,Seine-et-Marne,48.515,2.635
Le Mée-sur-Seine,77285,Appartement,14.8660663327261,12.8648291017425,17.1786136031202,commune,629,0.906749774296839,20207,6,Île-de-France,Seine-et-Marne,48.538,2.634
Tarbes,65440,Appartement,9.2801008235877,7.56786489314552,11.3797316035538,commune,11884,0.802512458964374,43955,15,Occitanie,Hautes-Pyrénées,43.233,0.078
Orly,94054,Appartement,16.8765762144226,13.5696284768917,20.9894342506315,commune,614,0.826058950399775,24482,7,Île-de-France,Val-de-Marne,48.743,2.401
Rosny-sous-Bois,93064,Appartement,17.8378396391816,14.5819568642399,21.8207011552384,commune,3328,0.850141426210307,45655,6,Île-de-France,Seine-Saint-Denis,48.872,2.488
Villeneuve-la-Garenne,92078,Appartement,18.3180826884704,14.1099367269638,23.7812656339136,commune,870,0.845651416503607,25371,3,Île-de-France,Hauts-de-Seine,48.936,2.333
Wattrelos,59650,Appartement,12.8783905775143,10.353468061614,16.0190713758917,commune,886,0.654376507850131,40836,14,Hauts-de-France,Nord,50.702,3.216
Saint-Benoît,97410,Appartement,11.1499035718197,9.18938614293222,13.5286892646792,commune,805,0.783132342493098,37023,230,La Réunion,La Réunion,-21.034,55.713
Bagnolet,93006,Appartement,20.3448095878849,16.4264569214217,25.1978426721781,commune,1736,0.844223064233217,39366,3,Île-de-France,Seine-Saint-Denis,48.869,2.416
Saint-Joseph,97412,Appartement,11.7996083493358,9.72352806080099,14.3189546353041,commune,1027,0.737267738156677,38807,178,La Réunion,La Réunion,-21.379,55.619
Noisy-le-Sec,93053,Appartement,17.3107593911643,14.0153197277972,21.3810599057865,commune,1921,0.795832543996814,46094,5,Île-de-France,Seine-Saint-Denis,48.89,2.452
Villemomble,93077,Appartement,17.2222494985474,13.5229139811931,21.9335772010914,commune,2063,0.734515114265091,30332,4,Île-de-France,Seine-Saint-Denis,48.882,2.508
Boulogne-Billancourt,92012,Appartement,25.9368410869077,20.3395648917898,33.0744403406118,commune,14184,0.910250102205066,119808,6,Île-de-France,Hauts-de-Seine,48.836,2.241
Mulhouse,68224,Appartement,10.5762198513072,8.18901434452724,13.6593271958229,commune,20419,0.782895364506263,106341,22,Grand Est,Haut-Rhin,47.75,7.336
Bondy,93010,Appartement,16.6602061115205,13.1137400705207,21.1657746901892,commune,1365,0.723803520177244,52905,5,Île-de-France,Seine-Saint-Denis,48.902,2.481
Saint-Brieuc,22278,Appartement,9.82090883156021,7.95408277679863,12.1258796248832,commune,8605,0.793582089750064,44224,19,Bretagne,Côtes-d'Armor,48.514,-2.764
Halluin,59279,Appartement,11.8368902560037,9.86083182865417,14.2089403173402,commune,794,0.749283559995415,20829,13,Hauts-de-France,Nord,50.783,3.125
Sevran,93071,Appartement,16.2868734376501,13.2025902038695,20.0916821834162,commune,1673,0.788772446645126,51845,7,Île-de-France,Seine-Saint-Denis,48.94,2.526
La Celle-Saint-Cloud,78126,Appartement,19.5758301100688,15.66139245418,24.4686496184443,commune,941,0.934177003881959,20476,6,Île-de-France,Yvelines,48.848,2.136
Draguignan,83050,Appartement,11.4034658450758,8.90163004145746,14.6084517862663,commune,5123,0.788608299883082,39745,54,Provence-Alpes-Côte d'Azur,Var,43.538,6.463
Versailles,78646,Appartement,21.6934603262318,16.872844447916,27.8913387946226,commune,10912,0.915239714947616,83587,26,Île-de-France,Yvelines,48.801,2.13
Savigny-le-Temple,77445,Appartement,14.7919147914804,12.9142633481115,16.9425647673828,commune,1682,0.870920008031678,30510,12,Île-de-France,Seine-et-Marne,48.596,2.581
Strasbourg,67482,Appartement,13.9345522439101,10.7740611236677,18.0221500518238,commune,48406,0.841161977252657,291313,78,Grand Est,Bas-Rhin,48.573,7.752
Le Blanc-Mesnil,93007,Appartement,16.623943794823,13.4685642932683,20.5185572326783,commune,1789,0.778565935431988,58257,8,Île-de-France,Seine-Saint-Denis,48.939,2.464
Sarcelles,95585,Appartement,16.0561576827115,11.7292180333277,21.9793168478559,commune,1175,0.708145241051716,58424,8,Île-de-France,Val-d'Oise,48.997,2.378
Vigneux-sur-Seine,91657,Appartement,15.7986605427159,13.499853742501,18.488916969387,commune,1344,0.857155470035181,31050,9,Île-de-France,Essonne,48.7,2.417
Neuilly-sur-Seine,92051,Appartement,29.4028415427767,22.2499709276863,38.8552009168641,commune,8498,0.943164896982209,59267,4,Île-de-France,Hauts-de-Seine,48.885,2.27
Thiais,94073,Appartement,17.6455252119995,14.3731646262251,21.6629091855803,commune,2308,0.821979287332719,31097,6,Île-de-France,Val-de-Marne,48.764,2.391
Gif-sur-Yvette,91272,Appartement,17.7530949108279,15.0118032196919,20.9949713768851,commune,1753,0.899035038383899,22352,12,Île-de-France,Essonne,48.702,2.134
Saint-Laurent-du-Var,06123,Appartement,17.3215454350569,13.9561177857609,21.4985242217474,commune,6767,0.839916701024977,30941,9,Provence-Alpes-Côte d'Azur,Alpes-Maritimes,43.675,7.192
Cagnes-sur-Mer,06027,Appartement,17.3136344483145,13.9490647584876,21.4897516786899,commune,5404,0.839916701024977,52580,18,Provence-Alpes-Côte d'Azur,Alpes-Maritimes,43.664,7.149
Saint-Louis,97414,Appartement,12.8383162144558,10.6560135071844,15.4675445100772,commune,768,0.76895518065883,53935,99,La Réunion,La Réunion,-21.287,55.409
Fontenay-aux-Roses,92032,Appartement,19.3961062977293,16.1804082788698,23.2508928717276,commune,1467,0.911092121848111,24772,3,Île-de-France,Hauts-de-Seine,48.791,2.286
Marignane,13054,Appartement,14.0293058118245,11.3646898269804,17.3186795731483,commune,3019,0.740230790661781,33003,24,Provence-Alpes-Côte d'Azur,Bouches-du-Rhône,43.417,5.216
Les Pavillons-sous-Bois,93057,Appartement,16.734729389465,13.7249984193895,20.404459015674,commune,1742,0.831408196663906,24165,3,Île-de-France,Seine-Saint-Denis,48.903,2.507
Sceaux,92071,Appartement,21.9336327242997,17.9036161151204,26.8707864037687,commune,1829,0.937844432132848,20488,4,Île-de-France,Hauts-de-Seine,48.78,2.288
Beauvais,60057,Appartement,11.7941132628169,9.78857330705994,14.2105599347994,commune,7155,0.835735244495248,56677,33,Hauts-de-France,Oise,49.43,2.082
La Valette-du-Var,83144,Appartement,14.472375104844,11.4172415827589,18.3450301596137,commune,2780,0.785890806811362,23955,15,Provence-Alpes-Côte d'Azur,Var,43.138,5.984
Cavaillon,84035,Appartement,11.3871578327724,9.30934238164182,13.9287350483722,commune,3184,0.786454546774749,25923,46,Provence-Alpes-Côte d'Azur,Vaucluse,43.836,5.038
Saint-Germain-en-Laye,78551,Appartement,22.2712956095508,17.0563598236243,29.0806838772824,commune,6127,0.908682714700303,44380,49,Île-de-France,Yvelines,48.899,2.094
Cannes,06029,Appartement,17.4821070820276,12.9994009649928,23.5106270550867,commune,14988,0.798817402323843,73255,21,Provence-Alpes-Côte d'Azur,Alpes-Maritimes,43.551,7.013
Guyancourt,78297,Appartement,17.488293813585,14.5798130484248,20.9769782022904,commune,1383,0.863048800137006,29406,13,Île-de-France,Yvelines,48.771,2.07
Vitry-sur-Seine,94081,Appartement,18.5528093504808,14.5903434335564,23.5914073142134,commune,3939,0.806340557430329,96205,12,Île-de-France,Val-de-Marne,48.789,2.388
Bezons,95063,Appartement,17.8663499588685,14.4661513573533,22.0657487238653,commune,1958,0.810536937809783,32017,4,Île-de-France,Val-d'Oise,48.928,2.216
Sucy-en-Brie,94071,Appartement,17.574782515185,14.5855995351158,21.1765707479092,commune,1027,0.844306851985592,27622,10,Île-de-France,Val-de-Marne,48.771,2.524
Nogent-sur-Oise,60463,Appartement,13.2859053047599,10.9779243960848,16.0791123529691,commune,1010,0.829045878884683,21382,7,Hauts-de-France,Oise,49.275,2.467
Saint-Cyr-l'École,78545,Appartement,17.5452635280167,14.634155567617,21.0354653430599,commune,2231,0.861477981663617,20971,5,Île-de-France,Yvelines,48.8,2.067
La Ciotat,13028,Appartement,15.7886448266659,12.0346956406933,20.7135529559801,commune,3653,0.747173006764401,36987,32,Provence-Alpes-Côte d'Azur,Bouches-du-Rhône,43.174,5.605
Morsang-sur-Orge,91434,Appartement,15.7515885935688,13.1742666769182,18.8331198468715,commune,709,0.830404343788511,20785,4,Île-de-France,Essonne,48.662,2.346
Pau,64445,Appartement,10.751713726038,8.73777043188431,13.2298449527638,commune,21668,0.847514802819886,77066,32,Nouvelle-Aquitaine,Pyrénées-Atlantiques,43.295,-0.371
Toulon,83137,Appartement,13.0622291772703,10.1255141398884,16.850683207027,commune,28501,0.763249154024659,180452,44,Provence-Alpes-Côte d'Azur,Var,43.12,5.932
Maisons-Alfort,94046,Appartement,20.328877121189,16.4516465348672,25.1198713838486,commune,4583,0.858717654205233,58068,5,Île-de-France,Val-de-Marne,48.801,2.431
Pontault-Combault,77373,Appartement,16.7153730868628,14.2122833969294,19.6593108672025,commune,2749,0.838739037501142,38258,14,Île-de-France,Seine-et-Marne,48.802,2.608
Pessac,33318,Appartement,14.1429409626597,11.3923411378426,17.5576535720871,commune,4253,0.807023543134308,66760,39,Nouvelle-Aquitaine,Gironde,44.806,-0.63
Conflans-Sainte-Honorine,78172,Appartement,16.3021866492309,13.8058560286213,19.2498957685352,commune,2283,0.853853787344884,35926,10,Île-de-France,Yvelines,48.994,2.095
Corbeil-Essonnes,91174,Appartement,14.875121975401,12.4819926399927,17.7270777322927,commune,5330,0.83066627066955,52683,11,Île-de-France,Essonne,48.614,2.482
Sainte-Marie,97418,Appartement,12.4341910008963,9.83503927743427,15.7202326788374,commune,1131,0.799044430727839,34344,89,La Réunion,La Réunion,-20.897,55.549
Romainville,93063,Appartement,18.5966453770137,14.5182497858654,23.8207238736933,commune,2094,0.794843762065788,33266,3,Île-de-France,Seine-Saint-Denis,48.886,2.435
Sartrouville,78586,Appartement,18.1099918814922,13.9312416049337,23.5421806073311,commune,3312,0.745224516355355,51220,8,Île-de-France,Yvelines,48.941,2.158
Liévin,62510,Appartement,10.7715684184911,9.0262572748431,12.8543517718702,commune,892,0.775334352739862,30149,13,Hauts-de-France,Pas-de-Calais,50.421,2.785
Brétigny-sur-Orge,91103,Appartement,15.7719824894656,13.3850621747086,18.5845555591096,commune,2339,0.861185417420095,27106,15,Île-de-France,Essonne,48.612,2.306
Saint-Michel-sur-Orge,91570,Appartement,15.5762980372743,13.2173029496518,18.3563213667874,commune,1159,0.861185417420095,21437,5,Île-de-France,Essonne,48.63,2.303
Limeil-Brévannes,94044,Appartement,16.6999846204614,14.0638810322745,19.8301937910054,commune,1568,0.82858785301624,27999,7,Île-de-France,Val-de-Marne,48.749,2.48
Villenave-d'Ornon,33550,Appartement,12.4063018797654,10.8069315825496,14.2423707558587,commune,3404,0.873895595310297,40500,21,Nouvelle-Aquitaine,Gironde,44.783,-0.572
Croix,59163,Appartement,13.3742359402632,10.6547253453365,16.7878740360134,commune,2160,0.782049524552692,20778,4,Hauts-de-France,Nord,50.68,3.156
Lille,59350,Appartement,14.6637292296177,11.4073730746543,18.8496469355685,commune,66058,0.81954376147282,236710,35,Hauts-de-France,Nord,50.63,3.071
Champigny-sur-Marne,94017,Appartement,17.6260087021597,13.958265444715,22.2575064214904,commune,3299,0.782424707198388,77724,11,Île-de-France,Val-de-Marne,48.813,2.511
Les Ulis,91692,Appartement,15.9679739855832,13.7231044566378,18.5800664864088,commune,1733,0.863521562649219,25253,5,Île-de-France,Essonne,48.681,2.17
Rillieux-la-Pape,69286,Appartement,13.5318188680734,10.987287483356,16.6656349126872,commune,1654,0.791986559019235,31247,15,Auvergne-Rhône-Alpes,Rhône,45.819,4.898
Dijon,21231,Appartement,12.1751984576658,9.97680791287505,14.8580045619851,commune,44642,0.86936996547423,159346,42,Bourgogne-Franche-Comté,Côte-d'Or,47.322,5.042
Bordeaux,33063,Appartement,15.3744992321623,11.5906062454952,20.3936896511887,commune,46482,0.79623462630136,261804,50,Nouvelle-Aquitaine,Gironde,44.838,-0.579
Bergerac,24037,Appartement,10.041195753652,7.98462082953282,12.6274765346695,commune,3131,0.696760014010212,26323,57,Nouvelle-Aquitaine,Dordogne,44.85,0.485
Lanester,56098,Appartement,11.5650945819933,9.5425560017573,14.0163089077833,commune,1485,0.813253097433053,23026,16,Bretagne,Morbihan,47.764,-3.347
Fréjus,83061,Appartement,15.3116012014878,12.3348047573529,19.0067971050492,commune,6290,0.788479164675645,57082,105,Provence-Alpes-Côte d'Azur,Var,43.433,6.737
Nanterre,92050,Appartement,20.729316977885,14.9144245279023,28.8113417695554,commune,5000,0.754757952600906,97351,12,Île-de-France,Hauts-de-Seine,48.892,2.207
Creil,60175,Appartement,13.0762669277052,10.7826738788611,15.857732384897,commune,2529,0.7759597302983,36106,11,Hauts-de-France,Oise,49.261,2.473
Nantes,44109,Appartement,13.5192027497586,10.6949160974471,17.0893199463908,commune,51270,0.847932494161632,323204,66,Pays de la Loire,Loire-Atlantique,47.218,-1.554
Mitry-Mory,77294,Appartement,16.1693923085569,13.9223934625375,18.7790445896771,commune,930,0.86433180315324,20627,30,Île-de-France,Seine-et-Marne,48.984,2.619
Montigny-lès-Cormeilles,95424,Appartement,16.0321795511374,13.3775529831862,19.2135872295152,commune,656,0.800405099919868,22603,4,Île-de-France,Val-d'Oise,48.988,2.188
Livry-Gargan,93046,Appartement,16.5027616693472,13.5348720911792,20.1214419228065,commune,2943,0.798074662048178,46028,7,Île-de-France,Seine-Saint-Denis,48.919,2.536
Ozoir-la-Ferrière,77350,Appartement,16.4177318654157,14.0282871449729,19.2141718243398,commune,1448,0.861167744518418,20692,16,Île-de-France,Seine-et-Marne,48.762,2.672
Chartres,28085,Appartement,11.7804546893218,9.86868060468736,14.0625802218431,commune,8878,0.893515128753923,38447,17,Centre-Val de Loire,Eure-et-Loir,48.444,1.489
Saint-Sébastien-sur-Loire,44190,Appartement,12.4401884397926,10.7743989220869,14.3635194442544,commune,2425,0.889390734016984,28283,12,Pays de la Loire,Loire-Atlantique,47.206,-1.502
Le Port,97407,Appartement,13.1430241471706,9.41323298418365,18.3506648590711,commune,433,0.616693985237551,33336,16,La Réunion,La Réunion,-20.935,55.29
Saint-Paul,97415,Appartement,16.1634115204268,11.5774682183543,22.5658898000242,commune,4129,0.616693985237551,105240,240,La Réunion,La Réunion,-21.01,55.27
Goussainville,95280,Appartement,16.2975097850904,13.2648569626501,20.0234971204736,commune,609,0.787528283275718,30693,11,Île-de-France,Val-d'Oise,49.032,2.473
Vélizy-Villacoublay,78640,Appartement,19.3356434318549,16.1782120771833,23.1092969445685,commune,1079,0.841894492711989,22713,9,Île-de-France,Yvelines,48.783,2.191
Le Plessis-Robinson,92060,Appartement,20.844950546903,17.8798954216211,24.3017060814238,commune,2150,0.93459900706128,29228,3,Île-de-France,Hauts-de-Seine,48.782,2.262
Lingolsheim,67267,Appartement,13.1926370671287,11.2400889873131,15.4843678712356,commune,2055,0.872798658556687,20266,6,Grand Est,Bas-Rhin,48.556,7.682
Bastia,2B033,Appartement,12.8583069865619,10.5745010653736,15.6353531517496,commune,3822,0.811809965699521,48768,20,Corse,Haute-Corse,42.702,9.452
Frontignan,34108,Appartement,12.6029436133028,10.1693839050019,15.6188604151294,commune,1575,0.739444315886963,23808,40,Occitanie,Hérault,43.446,3.756
Sèvres,92072,Appartement,21.9577180987673,17.4070566493846,27.6980418813067,commune,1284,0.891806036534076,22618,4,Île-de-France,Hauts-de-Seine,48.825,2.213
Rodez,12202,Appartement,9.43392834019164,7.48894175744879,11.8840560936863,commune,9372,0.842530609751863,24207,11,Occitanie,Aveyron,44.349,2.576
Caluire-et-Cuire,69034,Appartement,14.3086361719965,11.1203817795655,18.4109748353052,commune,4133,0.842347691499444,43572,10,Auvergne-Rhône-Alpes,Rhône,45.797,4.842
Le Cannet,06030,Appartement,16.5576805709447,13.2249915099824,20.730205057788,commune,4509,0.825530425765747,41597,8,Provence-Alpes-Côte d'Azur,Alpes-Maritimes,43.577,7.019
Vallauris,06155,Appartement,15.8294805818409,12.6446948495404,19.8164098440056,commune,4938,0.825530425765747,28025,13,Provence-Alpes-Côte d'Azur,Alpes-Maritimes,43.58,7.056
La Chapelle-sur-Erdre,44035,Appartement,12.7545152455738,11.0231004639739,14.7578859215919,commune,1046,0.893820427486013,20331,33,Pays de la Loire,Loire-Atlantique,47.299,-1.551
Cugnaux,31157,Appartement,11.6937775760937,10.2464786166547,13.3455052330746,commune,2459,0.880253065157662,20341,13,Occitanie,Haute-Garonne,43.537,1.345
Fontaine,38169,Appartement,11.7201857238829,9.55451755699855,14.3767335799904,commune,2735,0.783804044974867,22891,7,Auvergne-Rhône-Alpes,Isère,45.192,5.688
Biarritz,64122,Appartement,17.8858080370696,13.1269204881416,24.3699296745106,commune,2140,0.77216671060529,25764,12,Nouvelle-Aquitaine,Pyrénées-Atlantiques,43.483,-1.558
Gujan-Mestras,33199,Appartement,13.7615998023044,11.6429252192879,16.2658116883763,commune,803,0.804153174801224,22399,50,Nouvelle-Aquitaine,Gironde,44.636,-1.071
Stains,93072,Appartement,17.0442439768352,12.7088683438015,22.8585460863297,commune,709,0.638821952254275,40359,5,Île-de-France,Seine-Saint-Denis,48.955,2.382
Vandœuvre-lès-Nancy,54547,Appartement,11.4282779517951,9.21914364456678,14.1667753512504,commune,5298,0.85498784778909,29537,9,Grand Est,Meurthe-et-Moselle,48.66,6.173
Nancy,54395,Appartement,11.3521189281215,9.15874057598631,14.0707778639463,commune,45892,0.85498784778909,104260,15,Grand Est,Meurthe-et-Moselle,48.693,6.184
Bouguenais,44020,Appartement,12.2770899308884,10.5502405589058,14.2865877161338,commune,907,0.851667825792318,20410,31,Pays de la Loire,Loire-Atlantique,47.179,-1.619
Le Lamentin,97213,Appartement,14.1417523709569,11.0630520029186,18.0772141420564,commune,1560,0.706509424567823,39641,68,Martinique,Martinique,14.615,-61.004
Toulouse,31555,Appartement,13.476838300453,10.7262313063916,16.9328038328177,commune,117523,0.82680899248966,504078,118,Occitanie,Haute-Garonne,43.605,1.444
Levallois-Perret,92044,Appartement,27.1355196666941,21.3339982107617,34.5146943534525,commune,8246,0.914203817976605,68009,2,Île-de-France,Hauts-de-Seine,48.893,2.288
Les Mureaux,78440,Appartement,14.8717180831006,12.540266669383,17.6366264429768,commune,1977,0.845238523173923,33977,12,Île-de-France,Yvelines,48.994,1.909
Bayonne,64102,Appartement,13.2430691489019,10.8554438630084,16.1558461077973,commune,7672,0.828316055771036,52749,26,Nouvelle-Aquitaine,Pyrénées-Atlantiques,43.493,-1.475
Drancy,93029,Appartement,16.8440661426254,13.258563767368,21.3991929439172,commune,2458,0.726013272474973,71363,8,Île-de-France,Seine-Saint-Denis,48.923,2.445
Saint-Denis,93066,Appartement,18.0413008375928,13.7708219081377,23.6361008866279,commune,5789,0.763952824496097,113942,12,Île-de-France,Seine-Saint-Denis,48.936,2.358
Marcq-en-Barœul,59378,Appartement,14.4101843811916,11.8172994762409,17.5719854030468,commune,4187,0.862601609490138,39356,14,Hauts-de-France,Nord,50.673,3.094
La Roche-sur-Yon,85191,Appartement,9.86640317125706,8.03884519948461,12.1094397419212,commune,5916,0.823961448477855,54952,88,Pays de la Loire,Vendée,46.67,-1.429
Vitrolles,13117,Appartement,15.7481399474019,12.5032732360405,19.8351189421413,commune,1947,0.615511485994433,35532,37,Provence-Alpes-Côte d'Azur,Bouches-du-Rhône,43.448,5.25
Issy-les-Moulineaux,92040,Appartement,24.6713961786801,19.8183695140283,30.7128085877369,commune,7171,0.912582661259456,68580,4,Île-de-France,Hauts-de-Seine,48.824,2.274
Arras,62041,Appartement,11.503029636448,9.26891909804515,14.2756333740046,commune,8843,0.863782780716206,42600,12,Hauts-de-France,Pas-de-Calais,50.293,2.779
Lorient,56121,Appartement,11.4752133132978,9.35558748107376,14.0750669962816,commune,9944,0.838437365263867,57846,15,Bretagne,Morbihan,47.748,-3.366
Fresnes,94034,Appartement,17.1697191929464,14.1398624727192,20.8488065377866,commune,1168,0.830220408268656,28780,4,Île-de-France,Val-de-Marne,48.755,2.322
Montpellier,34172,Appartement,14.3303420018149,11.6001320252091,17.7031348818014,commune,62663,0.84568760536111,302454,57,Occitanie,Hérault,43.598,3.897
Montfermeil,93047,Appartement,16.3793756058856,13.2352304795446,20.2704399937213,commune,743,0.718631415334567,27980,5,Île-de-France,Seine-Saint-Denis,48.902,2.571
Gardanne,13041,Appartement,14.7473633132302,11.9465725619385,18.2047799538178,commune,2340,0.807152136766728,21174,27,Provence-Alpes-Côte d'Azur,Bouches-du-Rhône,43.456,5.471
Le Chesnay-Rocquencourt,78158,Appartement,19.3009936405085,16.1616158375106,23.0501924594893,commune,2789,0.944851985609152,30924,4,Île-de-France,Yvelines,48.826,2.125
Vincennes,94080,Appartement,25.8278182609303,20.2385696774577,32.9606393510432,commune,5419,0.896563571857587,48798,2,Île-de-France,Val-de-Marne,48.848,2.44
Dunkerque,59183,Appartement,11.3555238944149,9.05352083733352,14.2428481950239,commune,7842,0.740643779828949,86788,43,Hauts-de-France,Nord,51.038,2.377
Coudekerque-Branche,59155,Appartement,10.9962969130395,8.76351115725153,13.7979565073831,commune,673,0.740643779828949,20765,9,Hauts-de-France,Nord,51.019,2.381
Grande-Synthe,59271,Appartement,10.5401688249683,8.40313009845825,13.2206877148335,maille,76,0.740643779828949,20331,21,Hauts-de-France,Nord,51.014,2.302
La Seyne-sur-Mer,83126,Appartement,13.5289626999897,10.580773985331,17.2986240885087,commune,7299,0.745770648318868,62763,24,Provence-Alpes-Côte d'Azur,Var,43.102,5.881
Villeneuve-Saint-Georges,94078,Appartement,15.2395204186665,12.023343635574,19.316006398071,commune,1235,0.711959208368649,35492,8,Île-de-France,Val-de-Marne,48.731,2.448
Montrouge,92049,Appartement,23.5716848706745,18.975943442908,29.280458666736,commune,4554,0.892098608667708,47657,2,Île-de-France,Hauts-de-Seine,48.819,2.32
Montmorency,95428,Appartement,17.2611209822979,13.8892189590922,21.4516236257102,commune,1647,0.8447860649073,21870,5,Île-de-France,Val-d'Oise,48.99,2.321
La Garenne-Colombes,92035,Appartement,22.3884126194295,18.1696730173067,27.5866835435285,commune,3407,0.903967758448749,29932,2,Île-de-France,Hauts-de-Seine,48.907,2.247
Suresnes,92073,Appartement,23.6068460709526,18.7584811224027,29.7083318090239,commune,4135,0.894107964895235,49104,4,Île-de-France,Hauts-de-Seine,48.871,2.225
Bron,69029,Appartement,14.001021197914,11.3031221409331,17.3428714774778,commune,4935,0.825621924177306,43049,10,Auvergne-Rhône-Alpes,Rhône,45.734,4.909
Élancourt,78208,Appartement,16.6257988417886,14.3137253764454,19.3113378843002,commune,1551,0.892202902936198,26082,9,Île-de-France,Yvelines,48.768,1.949
Bourgoin-Jallieu,38053,Appartement,12.3143378336664,9.86945797342213,15.3648677252625,commune,4719,0.772425975170519,29577,25,Auvergne-Rhône-Alpes,Isère,45.594,5.277
Palaiseau,91477,Appartement,17.4380031135592,14.5607617594895,20.8837942417625,commune,3109,0.868207729964807,34893,12,Île-de-France,Essonne,48.715,2.246
Chevilly-Larue,94021,Appartement,17.6334085354538,14.4139242417112,21.5719946465669,commune,1017,0.856530594646805,20326,4,Île-de-France,Val-de-Marne,48.771,2.347
Aubervilliers,93001,Appartement,18.1073564805577,14.2085011304932,23.0760694391847,commune,4145,0.795664271527614,90071,6,Île-de-France,Seine-Saint-Denis,48.915,2.382
Pierrefitte-sur-Seine,93059,Appartement,16.4292950904641,13.1075990617616,20.5927672869535,commune,653,0.786019906030212,32379,3,Île-de-France,Seine-Saint-Denis,48.964,2.36
Malakoff,92046,Appartement,22.4134131295002,18.2666575189902,27.5015331946413,commune,1887,0.870773497064651,30292,2,Île-de-France,Hauts-de-Seine,48.821,2.302
Niort,79191,Appartement,10.235159626438,8.05355703271861,13.0077296470455,commune,7702,0.76205246320594,59309,68,Nouvelle-Aquitaine,Deux-Sèvres,46.324,-0.465
La Possession,97408,Appartement,14.1708216178345,11.6990682650675,17.1648015700612,commune,1548,0.833147721763461,35245,119,La Réunion,La Réunion,-20.926,55.336
Carquefou,44026,Appartement,12.9899589963593,11.2804443776415,14.9585449897299,commune,1449,0.921584082165783,20510,43,Pays de la Loire,Loire-Atlantique,47.299,-1.493
Wasquehal,59646,Appartement,13.8036403152832,11.9001963620032,16.0115413357462,commune,1980,0.893879031613728,20836,7,Hauts-de-France,Nord,50.669,3.131
Martigues,13056,Appartement,14.0968212570149,11.1503915278493,17.8218288618746,commune,4437,0.75649615270722,48568,74,Provence-Alpes-Côte d'Azur,Bouches-du-Rhône,43.406,5.048
Villeneuve-le-Roi,94077,Appartement,16.7726714174195,14.1713175831122,19.8515420197744,commune,908,0.841641976764629,21129,8,Île-de-France,Val-de-Marne,48.735,2.408
Saint-Raphaël,83118,Appartement,15.8387271084896,12.6649489700507,19.8078394954795,commune,3978,0.799754499326214,35950,91,Provence-Alpes-Côte d'Azur,Var,43.425,6.768
Chelles,77108,Appartement,16.4167021872342,13.5245124063339,19.9273809367149,commune,3024,0.799429664686067,54309,16,Île-de-France,Seine-et-Marne,48.878,2.59
Hyères,83069,Appartement,14.5377539970448,11.3169854503761,18.6751403194185,commune,6698,0.780765323809241,55103,134,Provence-Alpes-Côte d'Azur,Var,43.12,6.13
Houilles,78311,Appartement,19.171820685508,14.8290710754729,24.7863609612883,commune,2538,0.797399308585417,33449,4,Île-de-France,Yvelines,48.923,2.186
Allauch,13002,Appartement,15.4544039350626,12.5173428280495,19.08061513286,commune,1499,0.771364795206148,21490,50,Provence-Alpes-Côte d'Azur,Bouches-du-Rhône,43.336,5.482
Châlons-en-Champagne,51108,Appartement,9.9487494316632,7.90180634687529,12.5259479806359,commune,6423,0.79004735708649,43877,26,Grand Est,Marne,48.956,4.363
Antibes,06004,Appartement,17.5891531287376,13.8451157932606,22.345664160987,commune,9496,0.826428267971457,75130,27,Provence-Alpes-Côte d'Azur,Alpes-Maritimes,43.581,7.128
La Garde,83062,Appartement,15.1962550679278,12.2731780394317,18.8155152111046,commune,2243,0.829115129449211,25912,16,Provence-Alpes-Côte d'Azur,Var,43.124,6.01
Bois-Colombes,92009,Appartement,21.7521162725517,17.4004015666241,27.1921633832963,commune,2795,0.871214846023517,29765,2,Île-de-France,Hauts-de-Seine,48.914,2.268
Gagny,93032,Appartement,16.5588886172189,13.2045356506943,20.7653490808701,commune,2035,0.794468086319363,40189,7,Île-de-France,Seine-Saint-Denis,48.885,2.537
Cormeilles-en-Parisis,95176,Appartement,16.8538656799161,13.915319758086,20.4129544483944,commune,1360,0.805520402210494,26741,8,Île-de-France,Val-d'Oise,48.976,2.199
Herblay-sur-Seine,95306,Appartement,17.1336609158756,14.4185609089426,20.3600302578137,commune,1513,0.859980891815182,31605,13,Île-de-France,Val-d'Oise,48.99,2.165
Le Grand-Quevilly,76322,Appartement,11.7774456736278,10.0129337665146,13.8529056348226,commune,792,0.815048413581268,25975,11,Normandie,Seine-Maritime,49.407,1.052
Rueil-Malmaison,92063,Appartement,21.4825675716599,17.2460429271544,26.7598028962508,commune,6096,0.894874766989944,78186,15,Île-de-France,Hauts-de-Seine,48.878,2.181
Le Plessis-Trévise,94059,Appartement,16.8913887005522,14.0891118576708,20.2510289587773,commune,1232,0.825778615786822,20218,4,Île-de-France,Val-de-Marne,48.809,2.573
Cergy,95127,Appartement,16.3768587171398,13.801818672703,19.4323304632021,commune,8944,0.865166103407318,68348,15,Île-de-France,Val-d'Oise,49.052,2.035
Sainte-Geneviève-des-Bois,91549,Appartement,16.0433578066416,13.5374996615456,19.0130626886044,commune,3251,0.811452541237955,35846,9,Île-de-France,Essonne,48.641,2.327
Roissy-en-Brie,77390,Appartement,16.5177617715443,13.8005069163972,19.7700313180031,commune,714,0.830302903634446,23061,14,Île-de-France,Seine-et-Marne,48.791,2.654
Arles,13004,Appartement,12.1698260213136,9.82859066574784,15.0687591360559,commune,4229,0.793212470224001,50415,758,Provence-Alpes-Côte d'Azur,Bouches-du-Rhône,43.677,4.627
Rouen,76540,Appartement,12.140157464928,9.68535976440201,15.2171346091805,commune,45651,0.841998762533797,114083,21,Normandie,Seine-Maritime,49.444,1.1
Sotteville-lès-Rouen,76681,Appartement,11.1432793395013,8.88879878414243,13.9695674807804,commune,1804,0.841998762533797,28965,7,Normandie,Seine-Maritime,49.414,1.089
Bobigny,93008,Appartement,17.0572347128644,11.8891677022984,24.4717934286939,commune,1100,0.59560022532819,55056,7,Île-de-France,Seine-Saint-Denis,48.906,2.445
Massy,91377,Appartement,17.928180487008,14.4837073025648,22.1918082753453,commune,4886,0.830765274038153,50962,9,Île-de-France,Essonne,48.731,2.271
Alfortville,94002,Appartement,19.0143795144246,15.3039019805642,23.624473600114,commune,3512,0.822541112693123,45046,4,Île-de-France,Val-de-Marne,48.805,2.42
Créteil,94028,Appartement,18.1369552529646,12.4157084013779,26.494593398435,commune,4465,0.618723695132158,92989,11,Île-de-France,Val-de-Marne,48.778,2.453
Les Lilas,93045,Appartement,21.5843258711647,17.335115770753,26.8751088526704,commune,1855,0.854966375123792,23469,1,Île-de-France,Seine-Saint-Denis,48.879,2.416
Saint-Louis,68297,Appartement,13.3812824464051,10.5839602299634,16.9179320424457,commune,3689,0.805192802276918,22698,17,Grand Est,Haut-Rhin,47.586,7.561
Saint-Mandé,94067,Appartement,26.1255988733261,21.3064939095059,32.0346894889833,commune,1953,0.93936320355406,21195,1,Île-de-France,Val-de-Marne,48.843,2.419
Annemasse,74012,Appartement,16.7347217445825,13.1966254789693,21.221403328821,commune,6748,0.816014342929173,37918,5,Auvergne-Rhône-Alpes,Haute-Savoie,46.193,6.234
Montigny-le-Bretonneux,78423,Appartement,17.6375584321084,14.7064858287148,21.1528077522529,commune,2458,0.841442158208493,31777,11,Île-de-France,Yvelines,48.77,2.038
Colomiers,31149,Appartement,11.9923803619345,10.3821537854101,13.8523460274127,commune,4400,0.846762646259748,40159,21,Occitanie,Haute-Garonne,43.611,1.335
Carpentras,84031,Appartement,10.6071008470384,8.48105171138229,13.2661127662085,commune,4040,0.726558659501665,30769,38,Provence-Alpes-Côte d'Azur,Vaucluse,44.056,5.049
Saint-Nazaire,44184,Appartement,11.5350317441156,9.27643445232769,14.3435452513079,commune,8742,0.810907157897209,72057,48,Pays de la Loire,Loire-Atlantique,47.273,-2.214
Fort-de-France,97209,Appartement,14.3233319242362,10.7040466090822,19.166381173805,commune,3717,0.698684153268583,74921,44,Martinique,Martinique,14.607,-61.07
Argenteuil,95018,Appartement,17.5151914872277,13.4811007885248,22.7564453116016,commune,4731,0.722328050732467,107221,17,Île-de-France,Val-d'Oise,48.948,2.249
Achères,78005,Appartement,16.6768007301568,14.2010131074085,19.5842142028774,commune,1084,0.854706078818884,21368,10,Île-de-France,Yvelines,48.961,2.07
Dreux,28134,Appartement,10.9221377562891,8.92990351423938,13.3588333823689,commune,3044,0.811297857593176,30879,24,Centre-Val de Loire,Eure-et-Loir,48.736,1.371
Meyzieu,69282,Appartement,13.4688540160771,11.3126173287002,16.0360792940602,commune,1999,0.828974774367957,35882,24,Auvergne-Rhône-Alpes,Rhône,45.765,5.005
Viry-Châtillon,91687,Appartement,15.677262840311,13.2305286070371,18.5764739614012,commune,1950,0.843542787581091,31045,6,Île-de-France,Essonne,48.671,2.375
Blagnac,31069,Appartement,12.5418037780021,10.8939850689406,14.4388707172336,commune,4641,0.901098568908083,26466,17,Occitanie,Haute-Garonne,43.635,1.398
Tremblay-en-France,93073,Appartement,15.9378728457847,12.8430525471291,19.7784592032354,commune,1593,0.784453919847803,37271,23,Île-de-France,Seine-Saint-Denis,48.951,2.571
Carcassonne,11069,Appartement,8.86969262521176,7.07899006145895,11.1133716226071,commune,5615,0.768396558756436,46218,65,Occitanie,Aude,43.212,2.353
Saint-Genis-Laval,69204,Appartement,13.0920171395538,10.5424595085999,16.2581523450531,commune,2402,0.879934552212349,20929,13,Auvergne-Rhône-Alpes,Rhône,45.698,4.794
Bruges,33075,Appartement,13.3684972221199,11.3992767257355,15.6778997718644,commune,1743,0.84725169910185,20215,14,Nouvelle-Aquitaine,Gironde,44.882,-0.613
Le Bouscat,33069,Appartement,14.0812272704671,11.3878902564968,17.4115623681417,commune,1558,0.801467913877788,24339,5,Nouvelle-Aquitaine,Gironde,44.865,-0.6
Vénissieux,69259,Appartement,13.1253057601843,10.5949752832355,16.2599389515251,commune,3358,0.762174923437539,66363,15,Auvergne-Rhône-Alpes,Rhône,45.697,4.886
Charenton-le-Pont,94018,Appartement,24.0555617044005,19.4357266762406,29.773522675724,commune,2725,0.900883594755085,29445,2,Île-de-France,Val-de-Marne,48.82,2.416
Chatou,78146,Appartement,19.8894299074461,15.8883879007181,24.8980214050118,commune,2446,0.886828641725616,29649,5,Île-de-France,Yvelines,48.89,2.158
Castelnau-le-Lez,34057,Appartement,14.687327459978,12.353180470862,17.4625140809241,commune,4486,0.869553315677149,24888,11,Occitanie,Hérault,43.633,3.898
Six-Fours-les-Plages,83129,Appartement,15.2253512199106,12.5732151104699,18.4369167100784,commune,3263,0.833064013348948,36203,27,Provence-Alpes-Côte d'Azur,Var,43.093,5.839
Sainte-Foy-lès-Lyon,69202,Appartement,14.6405989398185,11.7417248612807,18.2551660721879,commune,1619,0.865227402304501,21858,7,Auvergne-Rhône-Alpes,Rhône,45.736,4.8
Franconville,95252,Appartement,16.3240672573113,13.725250641795,19.4149585152038,commune,2633,0.83212229327243,37520,6,Île-de-France,Val-d'Oise,48.986,2.23
Gennevilliers,92036,Appartement,19.5934615492509,13.9223296623034,27.5746764222546,commune,906,0.715705832468625,49410,12,Île-de-France,Hauts-de-Seine,48.926,2.293
Montigny-lès-Metz,57480,Appartement,11.9188273240613,9.58379229510747,14.8227800025791,commune,2786,0.820581075584941,21854,7,Grand Est,Moselle,49.1,6.153
Saint-Denis,97411,Appartement,13.2514433525551,10.3255307022548,17.0064625237743,commune,14198,0.844585058739398,154765,142,La Réunion,La Réunion,-20.879,55.448
Le Petit-Quevilly,76498,Appartement,11.3955466378598,9.64431802235219,13.4647657693028,commune,2411,0.834364578835075,21782,4,Normandie,Seine-Maritime,49.43,1.053
Clichy-sous-Bois,93014,Appartement,15.3042260072158,11.988960274236,19.5362507108537,commune,512,0.700951588044386,29735,4,Île-de-France,Seine-Saint-Denis,48.911,2.546
Illkirch-Graffenstaden,67218,Appartement,13.6635970156733,11.3958021485837,16.3826890790587,commune,4186,0.911483108530506,27118,22,Grand Est,Bas-Rhin,48.528,7.711
Tourcoing,59599,Appartement,12.2480752693725,9.9814081525383,15.0294773554637,commune,8965,0.80816636115105,99011,15,Hauts-de-France,Nord,50.724,3.161
Villeurbanne,69266,Appartement,14.1915311294763,11.2415949316244,17.9155677663075,commune,20724,0.820308233313529,156928,15,Auvergne-Rhône-Alpes,Rhône,45.766,4.88
Mont-Saint-Aignan,76451,Appartement,12.3572729881392,10.2978666107305,14.8285272547887,commune,2681,0.873891576659968,20066,8,Normandie,Seine-Maritime,49.46,1.08
Meudon,92048,Appartement,21.1575187011943,16.4435680841305,27.2228384558095,commune,3055,0.889874915604735,46342,10,Île-de-France,Hauts-de-Seine,48.813,2.239
Puteaux,92062,Appartement,24.4607482097688,19.29338600914,31.0120889458314,commune,4897,0.8851296523657,43672,3,Île-de-France,Hauts-de-Seine,48.884,2.238
Courbevoie,92026,Appartement,23.58275423793,18.3074873459682,30.3780790305494,commune,8742,0.878858505784258,81516,4,Île-de-France,Hauts-de-Seine,48.895,2.255
Montreuil,93048,Appartement,20.2791068777575,15.3801743941112,26.7384598653815,commune,6044,0.78103256022409,111455,9,Île-de-France,Seine-Saint-Denis,48.862,2.441
Auch,32013,Appartement,9.29054592296495,7.57753631701409,11.3908056570995,commune,4315,0.824667992720388,23041,73,Occitanie,Gers,43.647,0.583
Saint-Étienne,42218,Appartement,9.55277178733831,7.13564694987329,12.7886720660398,commune,43116,0.735736941027995,172718,80,Auvergne-Rhône-Alpes,Loire,45.44,4.387
Alençon,61001,Appartement,8.5895158946261,6.53796227262026,11.2848285486458,commune,4819,0.776977095501912,25555,11,Normandie,Orne,48.43,0.082
Soissons,02722,Appartement,10.4391037358753,8.37793659792312,13.0073658990663,commune,3840,0.823385684059351,28705,12,Hauts-de-France,Aisne,49.384,3.329
Millau,12145,Appartement,9.45100229911334,7.3788947414399,12.1049896478691,commune,2759,0.782173824594697,21712,170,Occitanie,Aveyron,44.101,3.078
Romans-sur-Isère,26281,Appartement,8.78590970888233,6.74702614835992,11.4409234105898,commune,5045,0.688978722064804,32911,33,Auvergne-Rhône-Alpes,Drôme,45.045,5.052
Reims,51454,Appartement,11.900995656234,9.48671705811706,14.9296850261299,commune,38836,0.846373337189075,179380,47,Grand Est,Marne,49.258,4.031
Chaumont,52121,Appartement,8.69671555247993,6.85299388736767,11.0364699930876,commune,3863,0.796082080717032,21699,55,Grand Est,Haute-Marne,48.111,5.14
Cherbourg-en-Cotentin,50129,Appartement,10.3344352469695,8.07103970950974,13.2325642937884,commune,6014,0.801072271124323,77808,16,Normandie,Manche,49.642,-1.624
Mâcon,71270,Appartement,9.70659495492676,7.56734788968308,12.4505952405679,commune,5070,0.776947357340968,34448,27,Bourgogne-Franche-Comté,Saône-et-Loire,46.303,4.833
Saint-Leu,97413,Appartement,15.2346909298039,11.4012466704519,20.3570551918819,commune,1290,0.572554750926686,34893,118,La Réunion,La Réunion,-21.166,55.287
Évreux,27229,Appartement,11.5233868177525,9.5227697496916,13.9443089817279,commune,8513,0.855539069376363,47289,26,Normandie,Eure,49.027,1.152
Narbonne,11262,Appartement,9.98637208235426,8.11000602175647,12.2968623080782,commune,9477,0.801535776904668,56395,175,Occitanie,Aude,43.184,3.004
Villeneuve-sur-Lot,47323,Appartement,8.66990514788182,6.87140132800305,10.9391449698824,commune,3384,0.739567471225473,21629,81,Nouvelle-Aquitaine,Lot-et-Garonne,44.41,0.706
Grenoble,38185,Appartement,12.5978540006549,9.98103492369341,15.9007484329178,commune,46515,0.850517589678177,157477,19,Auvergne-Rhône-Alpes,Isère,45.186,5.736
Amiens,80021,Appartement,13.5679024330183,11.1338034537811,16.5341500050807,commune,34240,0.853628157511679,133625,50,Hauts-de-France,Somme,49.894,2.296
Le Robert,97222,Appartement,15.1079191809131,11.8433019647788,19.2724311729787,commune,618,0.66900429377052,21305,46,Martinique,Martinique,14.678,-60.939
Joué-lès-Tours,37122,Appartement,11.5458128116688,9.93946557812443,13.4117667025765,commune,4499,0.90528160629742,38183,32,Centre-Val de Loire,Indre-et-Loire,47.351,0.662
Le Havre,76351,Appartement,11.0982922208645,8.49669563745645,14.4964696248168,commune,24909,0.7926637989694,166058,55,Normandie,Seine-Maritime,49.494,0.108
Hazebrouck,59295,Appartement,11.9721052506931,9.80645863929546,14.6160106727346,commune,1774,0.730152803567412,21498,27,Hauts-de-France,Nord,50.723,2.537
Libourne,33243,Appartement,11.6929559031446,9.58701050402621,14.2615070355316,commune,3330,0.785000228314914,24557,21,Nouvelle-Aquitaine,Gironde,44.914,-0.245
Trappes,78621,Appartement,15.9012280369199,13.3911576259408,18.881792011194,commune,1593,0.861466556824765,33717,14,Île-de-France,Yvelines,48.776,1.999
Agde,34003,Appartement,11.8648100671454,8.95337727217182,15.7229739851325,commune,3982,0.650744862664773,29103,51,Occitanie,Hérault,43.313,3.478
Bourges,18033,Appartement,10.5218712587662,8.39939096109143,13.1806907547097,commune,10302,0.774156879383034,63702,69,Centre-Val de Loire,Cher,47.081,2.399
Laon,02408,Appartement,9.20661589259904,7.40426898049471,11.4476900308657,commune,3424,0.802972750594605,24021,45,Hauts-de-France,Aisne,49.565,3.621
Sens,89387,Appartement,12.4993696236539,10.1519904913949,15.3895180576804,commune,4607,0.808594086710057,27034,22,Bourgogne-Franche-Comté,Yonne,48.199,3.283
La Rochelle,17300,Appartement,14.0621496740918,11.1249554021273,17.7748176337631,commune,10263,0.778125038656778,78535,32,Nouvelle-Aquitaine,Charente-Maritime,46.16,-1.151
Montauban,82121,Appartement,10.5270713904391,8.55938973215653,12.9470950064428,commune,8021,0.797125337986387,61919,136,Occitanie,Tarn-et-Garonne,44.016,1.353
La Courneuve,93027,Appartement,17.0061328702563,12.816167410473,22.5659158419294,commune,731,0.703575451551374,47160,8,Île-de-France,Seine-Saint-Denis,48.927,2.39
Mérignac,33281,Appartement,13.8944652301384,11.5416437636652,16.7269210508208,commune,6234,0.812917451515224,75729,48,Nouvelle-Aquitaine,Gironde,44.845,-0.656
Olivet,45232,Appartement,12.0727078862595,10.4651254761215,13.9272363278887,commune,3410,0.892849703250451,22855,23,Centre-Val de Loire,Loiret,47.865,1.897
Abbeville,80001,Appartement,9.5469232146967,7.78475249077941,11.7079821067233,commune,2697,0.827256086209801,22595,26,Hauts-de-France,Somme,50.106,1.834
Saint-André,97409,Appartement,11.6983392182953,9.63821797531828,14.1988011494197,commune,1483,0.736481536840463,57150,54,La Réunion,La Réunion,-20.96,55.65
Fleury-les-Aubrais,45147,Appartement,13.0302248588379,11.0287652350663,15.394901990663,commune,1570,0.83903877242081,21438,10,Centre-Val de Loire,Loiret,47.931,1.921
Aulnay-sous-Bois,93005,Appartement,17.5062964834714,13.8675590093287,22.0998098051026,commune,3304,0.740843765073713,86135,16,Île-de-France,Seine-Saint-Denis,48.934,2.5
Dole,39198,Appartement,9.27784310833128,7.29848577575394,11.7940043164527,commune,3946,0.785573105437029,23775,38,Bourgogne-Franche-Comté,Jura,47.091,5.489
Montereau-Fault-Yonne,77305,Appartement,15.0203199405792,11.9823711552463,18.8284946438654,commune,2193,0.796790882728517,22259,9,Île-de-France,Seine-et-Marne,48.385,2.956
Vierzon,18279,Appartement,8.2611713704508,6.47962867111923,10.5325406556311,commune,3422,0.692696773202692,25348,75,Centre-Val de Loire,Cher,47.221,2.07
Cahors,46042,Appartement,9.27077007653166,7.59091421855883,11.3223750575108,commune,3286,0.822254901241355,20141,65,Occitanie,Lot,44.447,1.441
Asnières-sur-Seine,92004,Appartement,21.7411122772734,17.2633872009328,27.3802561195792,commune,9429,0.874650735683708,89662,5,Île-de-France,Hauts-de-Seine,48.911,2.289
Belfort,90010,Appartement,9.72412754359503,7.65157833847794,12.3580589913836,commune,10906,0.80694851679224,45155,17,Bourgogne-Franche-Comté,Territoire de Belfort,47.638,6.863
Annecy,74010,Appartement,17.5237324755463,12.939700138102,23.7317091275007,commune,13754,0.798172828148659,131715,16,Auvergne-Rhône-Alpes,Haute-Savoie,45.899,6.129
Montbéliard,25388,Appartement,9.29497056041492,6.86034499678047,12.5936053885811,commune,5170,0.730256053300881,25573,15,Bourgogne-Franche-Comté,Doubs,47.51,6.798
Castres,81065,Appartement,9.36240350163481,7.49375463562543,11.6970201974204,commune,5816,0.759163577931465,42672,99,Occitanie,Tarn,43.604,2.242
Joinville-le-Pont,94042,Appartement,20.6775902154758,16.8609372724843,25.3581832498059,commune,1585,0.883623452493712,20413,2,Île-de-France,Val-de-Marne,48.818,2.467
Maubeuge,59392,Appartement,10.3924276365865,8.26762573132327,13.0633093092859,commune,1695,0.704492376388389,29066,19,Hauts-de-France,Nord,50.28,3.967
Vertou,44215,Appartement,12.9052128196595,11.0095615372712,15.1272616404288,commune,1344,0.87906521054749,26002,38,Pays de la Loire,Loire-Atlantique,47.168,-1.473
Saint-Quentin,02691,Appartement,9.8095514134895,7.82699737447039,12.2942802111781,commune,10599,0.795136599331787,52958,23,Hauts-de-France,Aisne,49.847,3.287
Laval,53130,Appartement,9.83766486042454,7.79338926800363,12.41817219414,commune,9760,0.81810025684089,49657,34,Pays de la Loire,Mayenne,48.071,-0.774
Rochefort,17299,Appartement,10.9793316836371,8.76603011623703,13.7514613366471,commune,3918,0.730004068223159,23092,22,Nouvelle-Aquitaine,Charente-Maritime,45.937,-0.962
Beaune,21054,Appartement,12.1765092853657,9.7849343434715,15.1526186249295,commune,3210,0.826902584908552,20032,31,Bourgogne-Franche-Comté,Côte-d'Or,47.026,4.84
Brive-la-Gaillarde,19031,Appartement,9.95263668360798,8.00575855412943,12.3729658203102,commune,8812,0.788547140303265,46599,48,Nouvelle-Aquitaine,Corrèze,45.16,1.534
Le Creusot,71153,Appartement,8.13932555105892,6.30001145518098,10.5156349154952,commune,3804,0.727560504258139,20731,18,Bourgogne-Franche-Comté,Saône-et-Loire,46.805,4.428
Taverny,95607,Appartement,16.3121921831328,13.9009222379503,19.1417237838381,commune,2035,0.879564171934159,27025,10,Île-de-France,Val-d'Oise,49.026,2.226
Bourg-en-Bresse,01053,Appartement,10.5846820688741,8.29083980247918,13.5131659962411,commune,6711,0.78564025064712,41525,24,Auvergne-Rhône-Alpes,Ain,46.205,5.225
Eysines,33162,Appartement,12.8403388406765,11.2107360635679,14.7068221576623,commune,2244,0.843943513495245,24374,12,Nouvelle-Aquitaine,Gironde,44.886,-0.649
Salon-de-Provence,13103,Appartement,13.1730660939071,10.6970964688708,16.2221282026787,commune,6088,0.777272773498862,44731,71,Provence-Alpes-Côte d'Azur,Bouches-du-Rhône,43.641,5.099
Istres,13047,Appartement,13.5342177050317,10.9908934252354,16.6660745218963,commune,3889,0.777272773498862,44577,114,Provence-Alpes-Côte d'Azur,Bouches-du-Rhône,43.517,4.99
Miramas,13063,Appartement,12.8552453151989,10.4420007515508,15.8262133901302,commune,1943,0.777272773498862,26405,26,Provence-Alpes-Côte d'Azur,Bouches-du-Rhône,43.58,5.001
Talence,33522,Appartement,14.336458284317,11.6345616092914,17.6658169890838,commune,5833,0.836874303643189,45225,8,Nouvelle-Aquitaine,Gironde,44.808,-0.589
Le Mans,72181,Appartement,11.0607365299925,8.98641745822004,13.6138670559983,commune,22218,0.852171756782611,145004,53,Pays de la Loire,Sarthe,48.008,0.197
Châtellerault,86066,Appartement,8.86965331583633,6.96584884679517,11.2937779261922,commune,4463,0.715409127301345,31284,52,Nouvelle-Aquitaine,Vienne,46.818,0.547
Albi,81004,Appartement,9.21724586855932,7.53418515493635,11.2762853121296,commune,9677,0.835257563973494,49714,45,Occitanie,Tarn,43.927,2.146
Béziers,34032,Appartement,9.93716325468111,7.87839817809548,12.5339201342646,commune,15552,0.76973150805414,80341,96,Occitanie,Hérault,43.343,3.214
Besançon,25056,Appartement,12.3686113537377,9.79447953789933,15.619262486368,commune,28421,0.843941841891269,119198,65,Bourgogne-Franche-Comté,Doubs,47.238,6.024
Montluçon,03185,Appartement,8.29654385881946,6.5438457519955,10.5186831429095,commune,8928,0.72297262799354,33342,21,Auvergne-Rhône-Alpes,Allier,46.34,2.607
Yerres,91691,Appartement,16.772915938534,14.1260102575442,19.9157939115101,commune,1445,0.853948435791928,28699,10,Île-de-France,Essonne,48.717,2.488
Cholet,49099,Appartement,10.5276098595961,8.41896922253594,13.1643870438668,commune,5279,0.820195900589567,53936,87,Pays de la Loire,Maine-et-Loire,47.059,-0.879
Étampes,91223,Appartement,13.4058652353077,11.2189001401348,16.0191480860327,commune,3215,0.815631868406515,26529,46,Île-de-France,Essonne,48.435,2.161
Saumur,49328,Appartement,8.66219068180901,6.78063935540789,11.0658513858543,commune,4668,0.746233038276312,26215,66,Pays de la Loire,Maine-et-Loire,47.26,-0.076
Cournon-d'Auvergne,63124,Appartement,11.5043421846046,9.67728392500173,13.6763465995392,commune,923,0.808999902132379,20193,19,Auvergne-Rhône-Alpes,Puy-de-Dôme,45.742,3.199
Rambouillet,78517,Appartement,15.915811818042,13.1855032480768,19.2114825700166,commune,3314,0.86250924752437,26816,36,Île-de-France,Yvelines,48.645,1.82
Poitiers,86194,Appartement,11.1895042611754,9.01900659149537,13.8823499396182,commune,24209,0.851764725267269,90240,42,Nouvelle-Aquitaine,Vienne,46.58,0.341
Aurillac,15014,Appartement,8.18513094583008,6.33812216149045,10.5703813989964,commune,5811,0.741779810530686,25815,29,Auvergne-Rhône-Alpes,Cantal,44.93,2.446
Béthune,62119,Appartement,10.3612372056366,8.38419808064456,12.8044728188501,commune,4700,0.792033776926334,24992,10,Hauts-de-France,Pas-de-Calais,50.531,2.639
Bruay-la-Buissière,62178,Appartement,9.63043493113893,7.93485613444728,11.6883375566533,commune,1132,0.651024728929872,21827,17,Hauts-de-France,Pas-de-Calais,50.482,2.546
Le Moule,97117,Appartement,13.7765858942768,10.4030694494204,18.2440691975732,commune,433,0.55413110715563,22645,83,Guadeloupe,Guadeloupe,16.331,-61.344
Remire-Montjoly,97309,Appartement,16.2296461606139,12.9110945512067,20.4011684256556,commune,1334,0.769699010779315,27274,51,Guyane,Guyane,4.905,-52.276
Les Abymes,97101,Appartement,13.4094145768078,10.3886339091956,17.3085701993544,commune,1494,0.544032601060105,52118,70,Guadeloupe,Guadeloupe,16.271,-61.505
Cayenne,97302,Appartement,15.1720822504845,12.1496138419691,18.9464523572183,commune,3801,0.752974345444918,63468,31,Guyane,Guyane,4.938,-52.335
Baie-Mahault,97103,Appartement,16.1613933157041,12.0481802547343,21.6788451353267,commune,786,0.671447324455152,30909,47,Guadeloupe,Guadeloupe,16.268,-61.587
Sainte-Anne,97128,Appartement,13.3742611921695,9.79554511269419,18.260429652309,commune,532,0.55362766449001,24281,81,Guadeloupe,Guadeloupe,16.226,-61.386
Kourou,97304,Appartement,15.1709587527787,11.8977256798116,19.3447046664601,commune,515,0.795598198163042,24612,2285,Guyane,Guyane,5.158,-52.643
Saint-Laurent-du-Maroni,97311,Appartement,16.3233736898202,12.5792462090092,21.1819153699912,commune,423,0.661807998293107,50250,4151,Guyane,Guyane,5.504,-54.029
Le Gosier,97113,Appartement,15.9608363216141,10.703643570706,23.8001475294411,commune,2058,0.567186205283265,27184,45,Guadeloupe,Guadeloupe,16.206,-61.492
Petit-Bourg,97118,Appartement,14.7484070707358,10.6825300864595,20.3617971925806,commune,600,0.672757520043904,24272,131,Guadeloupe,Guadeloupe,16.192,-61.59
Matoury,97307,Appartement,15.0352286006121,11.7733961784813,19.2007552999738,commune,750,0.672175196690772,34810,149,Guyane,Guyane,4.85,-52.331
Caen,14118,Maison,9.60737426401857,7.71758379990715,11.9599142221218,commune,1278,0.758893455157493,108200,26,Normandie,Calvados,49.181,-0.373
Les Mureaux,78440,Maison,12.8583210860364,10.0435043168682,16.4620251991054,commune,152,0.76633785769241,33977,12,Île-de-France,Yvelines,48.994,1.909
Saint-Étienne,42218,Maison,9.50012672676617,6.77313013975918,13.3250662488859,commune,558,0.740692502802971,172718,80,Auvergne-Rhône-Alpes,Loire,45.44,4.387
Le Creusot,71153,Maison,8.74019918919414,6.88792033409126,11.090587312501,commune,297,0.795775390099164,20731,18,Bourgogne-Franche-Comté,Saône-et-Loire,46.805,4.428
Saint-Mandé,94067,Maison,20.4874072015137,12.0234867178426,34.9094953644154,maille,10,0.664411770881661,21195,1,Île-de-France,Val-de-Marne,48.843,2.419
Vincennes,94080,Maison,20.4874072015137,12.0234867178426,34.9094953644154,maille,58,0.664411770881661,48798,2,Île-de-France,Val-de-Marne,48.848,2.44
Le Perreux-sur-Marne,94058,Maison,19.7483232833408,11.6547789622284,33.4623482579351,commune,143,0.664411770881661,34213,4,Île-de-France,Val-de-Marne,48.841,2.508
Nogent-sur-Marne,94052,Maison,20.4874072015137,12.0234867178426,34.9094953644154,maille,62,0.664411770881661,33472,3,Île-de-France,Val-de-Marne,48.839,2.492
Fontenay-sous-Bois,94033,Maison,20.3587634301564,11.8665747588553,34.9282970720572,commune,146,0.664411770881661,51812,6,Île-de-France,Val-de-Marne,48.849,2.475
Sète,34301,Maison,13.488811674415,10.1259694401201,17.9684563995363,commune,187,0.78650098838578,44712,42,Occitanie,Hérault,43.402,3.696
Issy-les-Moulineaux,92040,Maison,23.0810008110726,14.8028014352494,35.9886336901172,maille,88,0.832113616468887,68580,4,Île-de-France,Hauts-de-Seine,48.824,2.274
Sèvres,92072,Maison,23.0810008110726,14.8028014352494,35.9886336901172,maille,88,0.832113616468887,22618,4,Île-de-France,Hauts-de-Seine,48.825,2.213
Vélizy-Villacoublay,78640,Maison,23.0810008110726,14.8028014352494,35.9886336901172,maille,50,0.832113616468887,22713,9,Île-de-France,Yvelines,48.783,2.191
Clamart,92023,Maison,21.3274262119491,13.680495034239,33.2487316933876,commune,198,0.832113616468887,54491,9,Île-de-France,Hauts-de-Seine,48.801,2.263
Châtillon,92020,Maison,23.0810008110726,14.8028014352494,35.9886336901172,maille,70,0.832113616468887,36777,3,Île-de-France,Hauts-de-Seine,48.8,2.29
Meudon,92048,Maison,22.9485958357505,14.7303431249583,35.7519201260369,commune,107,0.832113616468887,46342,10,Île-de-France,Hauts-de-Seine,48.813,2.239
Le Plessis-Robinson,92060,Maison,23.0810008110726,14.8028014352494,35.9886336901172,maille,31,0.832113616468887,29228,3,Île-de-France,Hauts-de-Seine,48.782,2.262
Vanves,92075,Maison,23.0810008110726,14.8028014352494,35.9886336901172,maille,22,0.832113616468887,28014,2,Île-de-France,Hauts-de-Seine,48.821,2.29
Sainte-Foy-lès-Lyon,69202,Maison,15.3243908181013,9.9931066675679,23.4998946531872,commune,101,0.797531575605099,21858,7,Auvergne-Rhône-Alpes,Rhône,45.736,4.8
La Rochelle,17300,Maison,11.5280720741493,8.37275059500434,15.8724954528176,commune,1481,0.761677714582298,78535,32,Nouvelle-Aquitaine,Charente-Maritime,46.16,-1.151
Angers,49007,Maison,11.8670570663834,8.68326333807788,16.2182163472165,commune,1623,0.716745959959563,157175,44,Pays de la Loire,Maine-et-Loire,47.471,-0.548
Eaubonne,95203,Maison,15.4306152825677,11.5957369980365,20.533743395433,maille,97,0.801401475642568,25373,4,Île-de-France,Val-d'Oise,48.991,2.28
Abbeville,80001,Maison,7.68949153153428,6.26637577089359,9.43580183751185,commune,1083,0.748266232540844,22595,26,Hauts-de-France,Somme,50.106,1.834
Metz,57463,Maison,10.9672031923185,7.99177899183447,15.0504094250474,commune,481,0.711841022234899,120874,42,Grand Est,Moselle,49.12,6.176
Montélimar,26198,Maison,10.0546495270322,7.78503588812464,12.9859359114402,commune,1318,0.732597401015138,40399,46,Auvergne-Rhône-Alpes,Drôme,44.557,4.75
Voiron,38563,Maison,11.3343870148722,8.55661790170704,15.0139144319244,commune,252,0.74111795122548,20891,22,Auvergne-Rhône-Alpes,Isère,45.363,5.592
Libourne,33243,Maison,11.3312753184346,9.06688373968873,14.1611830512535,commune,1194,0.76399440430087,24557,21,Nouvelle-Aquitaine,Gironde,44.914,-0.245
Saintes,17415,Maison,7.90675781599926,6.20085011958494,10.0819755283893,commune,1314,0.675780536235351,25518,46,Nouvelle-Aquitaine,Charente-Maritime,45.744,-0.634
Plaisir,78490,Maison,15.8517386065704,12.4098256616426,20.2482793636423,commune,172,0.915946700007309,31375,18,Île-de-France,Yvelines,48.817,1.947
Chemillé-en-Anjou,49092,Maison,7.87869925770303,6.0651696168767,10.2344873951432,commune,889,0.648041702051537,21386,49,Pays de la Loire,Maine-et-Loire,47.215,-0.733
Bobigny,93008,Maison,19.3245247643841,13.2279207278407,28.2309869444049,maille,85,0.792284806845589,55056,7,Île-de-France,Seine-Saint-Denis,48.906,2.445
Romainville,93063,Maison,19.3245247643841,13.2279207278407,28.2309869444049,maille,77,0.792284806845589,33266,3,Île-de-France,Seine-Saint-Denis,48.886,2.435
Pantin,93055,Maison,19.3245247643841,13.2279207278407,28.2309869444049,maille,35,0.792284806845589,60800,5,Île-de-France,Seine-Saint-Denis,48.897,2.401
Les Lilas,93045,Maison,19.3245247643841,13.2279207278407,28.2309869444049,maille,53,0.792284806845589,23469,1,Île-de-France,Seine-Saint-Denis,48.879,2.416
Drancy,93029,Maison,15.9888755280035,10.8527244927953,23.5557569732562,commune,219,0.792284806845589,71363,8,Île-de-France,Seine-Saint-Denis,48.923,2.445
Vienne,38544,Maison,11.0966983098835,8.6463460550677,14.2414740974194,commune,317,0.685570310843959,31051,23,Auvergne-Rhône-Alpes,Isère,45.526,4.875
Concarneau,29039,Maison,9.54011177400448,7.72834488108637,11.7766137589483,commune,467,0.727902164372441,20607,41,Bretagne,Finistère,47.871,-3.919
Rambouillet,78517,Maison,14.1960059415485,11.0956104698225,18.1627306799015,commune,363,0.831484041733265,26816,36,Île-de-France,Yvelines,48.645,1.82
Suresnes,92073,Maison,21.7451398142623,15.965306969763,29.6174139612447,maille,84,0.902050150178556,49104,4,Île-de-France,Hauts-de-Seine,48.871,2.225
Houilles,78311,Maison,18.375644195886,13.4912454100659,25.0284009630324,commune,192,0.902050150178556,33449,4,Île-de-France,Yvelines,48.923,2.186
Rueil-Malmaison,92063,Maison,23.8235894431274,17.4677573259541,32.4920597054201,commune,366,0.902050150178556,78186,15,Île-de-France,Hauts-de-Seine,48.878,2.181
La Celle-Saint-Cloud,78126,Maison,24.2254368700014,17.7740048973517,33.0185456193875,commune,181,0.902050150178556,20476,6,Île-de-France,Yvelines,48.848,2.136
Chatou,78146,Maison,21.6706333102844,15.8966860202433,29.5417766615497,commune,250,0.902050150178556,29649,5,Île-de-France,Yvelines,48.89,2.158
Le Chesnay-Rocquencourt,78158,Maison,21.7451398142623,15.965306969763,29.6174139612447,maille,67,0.902050150178556,30924,4,Île-de-France,Yvelines,48.826,2.125
Martigues,13056,Maison,13.3119294354355,9.48443931284972,18.6840212108193,commune,507,0.747291103832131,48568,74,Provence-Alpes-Côte d'Azur,Bouches-du-Rhône,43.406,5.048
Cherbourg-en-Cotentin,50129,Maison,9.50945227428786,7.49730524857263,12.0616247516633,commune,1756,0.759219745641655,77808,16,Normandie,Manche,49.642,-1.624
Valence,26362,Maison,10.2064695659051,7.65317814078506,13.6116027986593,commune,556,0.716413335428433,64483,37,Auvergne-Rhône-Alpes,Drôme,44.933,4.892
Cahors,46042,Maison,8.16436659276459,6.52188195787333,10.2204980543355,commune,654,0.728508460009256,20141,65,Occitanie,Lot,44.447,1.441
Arles,13004,Maison,10.6668664620696,8.33486562512321,13.6513346749897,commune,1155,0.753836536628699,50415,758,Provence-Alpes-Côte d'Azur,Bouches-du-Rhône,43.677,4.627
Vigneux-sur-Seine,91657,Maison,14.7470504228237,10.538175618516,20.6369208529027,commune,159,0.673151615347489,31050,9,Île-de-France,Essonne,48.7,2.417
Montgeron,91421,Maison,16.3385268924369,11.4693447254054,23.2748659497152,commune,184,0.673151615347489,23800,11,Île-de-France,Essonne,48.704,2.461
Villeneuve-le-Roi,94077,Maison,15.9135234471868,11.3369491380511,22.3375994211877,maille,70,0.673151615347489,21129,8,Île-de-France,Val-de-Marne,48.735,2.408
Athis-Mons,91027,Maison,14.0973413973495,9.90865073437408,20.056720112658,commune,173,0.673151615347489,36222,9,Île-de-France,Essonne,48.708,2.389
Cagnes-sur-Mer,06027,Maison,17.2080273680417,10.973247926779,26.9852834707791,commune,237,0.784502299012604,52580,18,Provence-Alpes-Côte d'Azur,Alpes-Maritimes,43.664,7.149
Saint-Genis-Laval,69204,Maison,13.1676210055579,9.65193127142851,17.9638911705956,commune,301,0.775545907962901,20929,13,Auvergne-Rhône-Alpes,Rhône,45.698,4.794
Oullins-Pierre-Bénite,69149,Maison,12.4347486718256,9.12746112591037,16.9404144699709,maille,94,0.775545907962901,27113,4,Auvergne-Rhône-Alpes,Rhône,45.714,4.807
Quimper,29232,Maison,9.83921471240012,7.78058613796238,12.4425261079449,commune,1438,0.710521727800394,63642,84,Bretagne,Finistère,47.996,-4.102
Lanester,56098,Maison,10.7192378004611,8.25189126762676,13.9243302288302,commune,342,0.786791212364091,23026,16,Bretagne,Morbihan,47.764,-3.347
Lorient,56121,Maison,11.2200303674738,8.64390054448018,14.563920628104,commune,615,0.786791212364091,57846,15,Bretagne,Morbihan,47.748,-3.366
Maisons-Laffitte,78358,Maison,23.2590644143334,17.477983407035,30.9523166850222,commune,216,0.912546078472212,23080,7,Île-de-France,Yvelines,48.946,2.145
Le Mans,72181,Maison,8.51443827427354,6.94481419824,10.4388191040138,commune,4678,0.824059177920142,145004,53,Pays de la Loire,Sarthe,48.008,0.197
Montauban,82121,Maison,9.59586213098533,7.8254414583108,11.7668211470788,commune,2204,0.7470334438149,61919,136,Occitanie,Tarn-et-Garonne,44.016,1.353
Villeneuve-sur-Lot,47323,Maison,7.63560302363386,6.04751614877298,9.64072391048611,commune,1387,0.659166373795191,21629,81,Nouvelle-Aquitaine,Lot-et-Garonne,44.41,0.706
Meaux,77284,Maison,12.0227399811293,9.359285597813,15.4441570505788,commune,356,0.750024472343892,55616,15,Île-de-France,Seine-et-Marne,48.958,2.878
Mont-de-Marsan,40192,Maison,8.97887541674702,7.1868396690986,11.2177545988828,commune,1477,0.748617803506676,30674,37,Nouvelle-Aquitaine,Landes,43.891,-0.501
Rouen,76540,Maison,10.3199362794964,8.11365295232452,13.1261572855855,commune,1737,0.78616454796701,114083,21,Normandie,Seine-Maritime,49.444,1.1
Le Petit-Quevilly,76498,Maison,9.82294113926515,7.7154913949654,12.5060307485315,commune,827,0.78616454796701,21782,4,Normandie,Seine-Maritime,49.43,1.053
Albi,81004,Maison,9.08660448017604,7.36907712474676,11.2044397936726,commune,2174,0.692819292352454,49714,45,Occitanie,Tarn,43.927,2.146
Clichy,92024,Maison,15.3394411056427,8.80491615648581,26.7235314058225,maille,15,0.529629287517169,64849,3,Île-de-France,Hauts-de-Seine,48.903,2.305
Saint-Ouen-sur-Seine,93070,Maison,15.3394411056427,8.80491615648581,26.7235314058225,maille,44,0.529629287517169,53207,4,Île-de-France,Seine-Saint-Denis,48.912,2.334
Gennevilliers,92036,Maison,15.3394411056427,8.80491615648581,26.7235314058225,maille,35,0.529629287517169,49410,12,Île-de-France,Hauts-de-Seine,48.926,2.293
Garges-lès-Gonesse,95268,Maison,15.3394411056427,8.80491615648581,26.7235314058225,maille,64,0.529629287517169,42841,5,Île-de-France,Val-d'Oise,48.972,2.401
Saint-Denis,93066,Maison,15.4999210734411,8.89542459377433,27.0079916647313,commune,131,0.529629287517169,113942,12,Île-de-France,Seine-Saint-Denis,48.936,2.358
Aubervilliers,93001,Maison,15.3394411056427,8.80491615648581,26.7235314058225,maille,88,0.529629287517169,90071,6,Île-de-France,Seine-Saint-Denis,48.915,2.382
Villeneuve-la-Garenne,92078,Maison,15.3394411056427,8.80491615648581,26.7235314058225,maille,10,0.529629287517169,25371,3,Île-de-France,Hauts-de-Seine,48.936,2.333
Stains,93072,Maison,15.3394411056427,8.80491615648581,26.7235314058225,maille,71,0.529629287517169,40359,5,Île-de-France,Seine-Saint-Denis,48.955,2.382
Pierrefitte-sur-Seine,93059,Maison,15.3394411056427,8.80491615648581,26.7235314058225,maille,95,0.529629287517169,32379,3,Île-de-France,Seine-Saint-Denis,48.964,2.36
La Courneuve,93027,Maison,15.3394411056427,8.80491615648581,26.7235314058225,maille,36,0.529629287517169,47160,8,Île-de-France,Seine-Saint-Denis,48.927,2.39
Draguignan,83050,Maison,13.0358432594938,9.6287403639697,17.6485400023842,commune,534,0.753247276613894,39745,54,Provence-Alpes-Côte d'Azur,Var,43.538,6.463
Avignon,84007,Maison,10.4566423805307,7.96323039802111,13.7307806517168,commune,1417,0.691937217881618,90330,65,Provence-Alpes-Côte d'Azur,Vaucluse,43.949,4.805
Creil,60175,Maison,10.3295763898769,8.26042133488569,12.9170346243336,commune,132,0.794213467127715,36106,11,Hauts-de-France,Oise,49.261,2.473
Nogent-sur-Oise,60463,Maison,10.0753563413497,8.0043254787342,12.6822435787843,commune,163,0.794213467127715,21382,7,Hauts-de-France,Oise,49.275,2.467
Agde,34003,Maison,10.8890514965011,8.22490656081626,14.416144623251,commune,628,0.699861396461513,29103,51,Occitanie,Hérault,43.313,3.478
Strasbourg,67482,Maison,12.1232672389623,8.12592321554593,18.087004349994,commune,436,0.76598054791151,291313,78,Grand Est,Bas-Rhin,48.573,7.752
Illkirch-Graffenstaden,67218,Maison,11.7438363105533,7.83918542908227,17.5933701960173,commune,106,0.76598054791151,27118,22,Grand Est,Bas-Rhin,48.528,7.711
Schiltigheim,67447,Maison,11.6508896331432,7.81778163690713,17.3633948283808,maille,67,0.76598054791151,34129,8,Grand Est,Bas-Rhin,48.605,7.749
Lingolsheim,67267,Maison,10.2148442783333,8.01056723204555,13.0256747878208,maille,62,0.807012014108502,20266,6,Grand Est,Bas-Rhin,48.556,7.682
Villeneuve-d'Ascq,59009,Maison,12.0294777077501,9.04769054625866,15.9939526204393,commune,755,0.752837657100429,62067,28,Hauts-de-France,Nord,50.62,3.132
Cholet,49099,Maison,8.92001138634063,7.03110348466032,11.3163749198168,commune,2180,0.80604915078688,53936,87,Pays de la Loire,Maine-et-Loire,47.059,-0.879
Anglet,64024,Maison,16.3559428460584,11.2640312151562,23.7496559867105,commune,328,0.721974219031342,41153,28,Nouvelle-Aquitaine,Pyrénées-Atlantiques,43.481,-1.515
Bayonne,64102,Maison,13.9061965794047,9.5691709857131,20.2088878538977,commune,340,0.721974219031342,52749,26,Nouvelle-Aquitaine,Pyrénées-Atlantiques,43.493,-1.475
Biarritz,64122,Maison,17.6423791693249,12.1368958748873,25.6452346598976,commune,198,0.721974219031342,25764,12,Nouvelle-Aquitaine,Pyrénées-Atlantiques,43.483,-1.558
Fréjus,83061,Maison,15.2279959123433,10.7200125076365,21.6316780732444,commune,366,0.810686442012271,57082,105,Provence-Alpes-Côte d'Azur,Var,43.433,6.737
Saint-Raphaël,83118,Maison,16.6371544230897,11.6719205514297,23.7145983026615,commune,265,0.810686442012271,35950,91,Provence-Alpes-Côte d'Azur,Var,43.425,6.768
Saint-Jean-de-Braye,45284,Maison,10.1460507878492,8.79412881240814,11.7058038136044,commune,597,0.87956513096466,21700,14,Centre-Val de Loire,Loiret,47.912,1.971
Soissons,02722,Maison,10.1037766463662,8.11710292449945,12.5766918898531,commune,704,0.745987200460549,28705,12,Hauts-de-France,Aisne,49.384,3.329
Limoges,87085,Maison,8.50492399306516,6.78960136915384,10.6536051522021,commune,2509,0.738194268459773,129760,80,Nouvelle-Aquitaine,Haute-Vienne,45.826,1.26
Grasse,06069,Maison,15.532174440669,11.3230404712672,21.3059772653426,commune,805,0.849667140285829,48323,44,Provence-Alpes-Côte d'Azur,Alpes-Maritimes,43.658,6.925
Givors,69091,Maison,10.7225210034833,8.15312541691161,14.1016421054505,commune,119,0.730920888206028,20654,17,Auvergne-Rhône-Alpes,Rhône,45.582,4.774
La Garde,83062,Maison,15.56126345132,10.8642049178,22.289060454359,commune,211,0.787131610601773,25912,16,Provence-Alpes-Côte d'Azur,Var,43.124,6.01
La Valette-du-Var,83144,Maison,15.227455560985,10.590417397738,21.8948313511514,commune,218,0.787131610601773,23955,15,Provence-Alpes-Côte d'Azur,Var,43.138,5.984
Montigny-le-Bretonneux,78423,Maison,17.7353767307305,13.8672520722052,22.6824742308819,maille,96,0.909104670584206,31777,11,Île-de-France,Yvelines,48.77,2.038
Saint-Cyr-l'École,78545,Maison,17.7353767307305,13.8672520722052,22.6824742308819,maille,70,0.909104670584206,20971,5,Île-de-France,Yvelines,48.8,2.067
Béthune,62119,Maison,8.07084813895675,6.57761115944428,9.9030769838947,commune,1371,0.728947845785324,24992,10,Hauts-de-France,Pas-de-Calais,50.531,2.639
Challans,85047,Maison,9.10876335035447,7.6303193684923,10.8736693401544,commune,1065,0.781996400047857,22494,65,Pays de la Loire,Vendée,46.845,-1.879
Roanne,42187,Maison,9.57741447239565,7.61143098216091,12.0511988075614,commune,639,0.752479973210626,34762,16,Auvergne-Rhône-Alpes,Loire,46.034,4.073
Boulogne-sur-Mer,62160,Maison,8.58230900330706,7.01301216717001,10.5027662967777,commune,748,0.771950598104825,40910,8,Hauts-de-France,Pas-de-Calais,50.725,1.613
Saumur,49328,Maison,8.63103216868389,6.84564304041285,10.8820626283142,commune,1075,0.769057558351431,26215,66,Pays de la Loire,Maine-et-Loire,47.26,-0.076
Herblay-sur-Seine,95306,Maison,16.1442556494966,12.3027494381914,21.1852636506769,commune,152,0.838681114069308,31605,13,Île-de-France,Val-d'Oise,48.99,2.165
Pontoise,95500,Maison,15.4247539034392,11.8084340144671,20.1485677686111,commune,204,0.838681114069308,31327,7,Île-de-France,Val-d'Oise,49.051,2.101
Cugnaux,31157,Maison,10.7487071770873,9.05766040756935,12.7554689378968,commune,634,0.820176619739351,20341,13,Occitanie,Haute-Garonne,43.537,1.345
Narbonne,11262,Maison,9.6393226554427,7.61736047024095,12.1979971433322,commune,1368,0.723848038254499,56395,175,Occitanie,Aude,43.184,3.004
Carcassonne,11069,Maison,8.17444505140099,6.46247405012253,10.3399334960745,commune,1684,0.710841188917322,46218,65,Occitanie,Aude,43.212,2.353
Bourg-en-Bresse,01053,Maison,8.92992648479412,7.0034604296993,11.3863122129829,commune,353,0.7037548493503,41525,24,Auvergne-Rhône-Alpes,Ain,46.205,5.225
Cergy,95127,Maison,14.4664937800989,10.677383579583,19.6002551308373,commune,246,0.712366478990596,68348,15,Île-de-France,Val-d'Oise,49.052,2.035
Saint-Chamond,42207,Maison,10.4776576211366,7.82572319185826,14.0282637826976,commune,277,0.749617782762257,35068,55,Auvergne-Rhône-Alpes,Loire,45.476,4.513
Lens,62498,Maison,8.52170907580556,6.89839124797583,10.5270233250362,commune,630,0.674665801350602,32618,12,Hauts-de-France,Pas-de-Calais,50.429,2.832
Chaumont,52121,Maison,8.01601276244083,6.38197932228711,10.0684219366268,commune,503,0.770748509711048,21699,55,Grand Est,Haute-Marne,48.111,5.14
Bouguenais,44020,Maison,10.5855406838411,8.59135139003449,13.0426130281706,commune,502,0.82298554414697,20410,31,Pays de la Loire,Loire-Atlantique,47.179,-1.619
Marcq-en-Barœul,59378,Maison,12.7992914737408,9.32919832985006,17.5601221495745,commune,855,0.794644058374783,39356,14,Hauts-de-France,Nord,50.673,3.094
La Madeleine,59368,Maison,11.8493165624497,8.63821528068127,16.2540870347551,commune,271,0.794644058374783,22488,3,Hauts-de-France,Nord,50.654,3.074
Mons-en-Barœul,59410,Maison,10.9360677848054,7.95725640886362,15.0300018559963,commune,205,0.794644058374783,21467,3,Hauts-de-France,Nord,50.643,3.11
Brive-la-Gaillarde,19031,Maison,9.20644485924228,7.21934628517579,11.7404850242898,commune,1491,0.713798048945523,46599,48,Nouvelle-Aquitaine,Corrèze,45.16,1.534
Étampes,91223,Maison,10.937772375424,8.89142990865857,13.4550759287981,commune,265,0.794605673830813,26529,46,Île-de-France,Essonne,48.435,2.161
Hyères,83069,Maison,15.5068136233204,11.059506601531,21.7424951593326,commune,412,0.764655813739743,55103,134,Provence-Alpes-Côte d'Azur,Var,43.12,6.13
Ivry-sur-Seine,94041,Maison,16.957973463926,11.4261860966246,25.167878552947,maille,63,0.73319644292261,64001,6,Île-de-France,Val-de-Marne,48.812,2.388
Créteil,94028,Maison,16.957973463926,11.4261860966246,25.167878552947,maille,87,0.73319644292261,92989,11,Île-de-France,Val-de-Marne,48.778,2.453
Vitry-sur-Seine,94081,Maison,18.3721857590468,12.3904075400717,27.241816580552,commune,154,0.73319644292261,96205,12,Île-de-France,Val-de-Marne,48.789,2.388
Alfortville,94002,Maison,16.957973463926,11.4261860966246,25.167878552947,maille,46,0.73319644292261,45046,4,Île-de-France,Val-de-Marne,48.805,2.42
Villeneuve-Saint-Georges,94078,Maison,16.957973463926,11.4261860966246,25.167878552947,maille,76,0.73319644292261,35492,8,Île-de-France,Val-de-Marne,48.731,2.448
Limeil-Brévannes,94044,Maison,16.957973463926,11.4261860966246,25.167878552947,maille,68,0.73319644292261,27999,7,Île-de-France,Val-de-Marne,48.749,2.48
Orly,94054,Maison,16.957973463926,11.4261860966246,25.167878552947,maille,57,0.73319644292261,24482,7,Île-de-France,Val-de-Marne,48.743,2.401
Choisy-le-Roi,94022,Maison,16.957973463926,11.4261860966246,25.167878552947,maille,76,0.73319644292261,46129,5,Île-de-France,Val-de-Marne,48.762,2.41
Caluire-et-Cuire,69034,Maison,14.913790948414,10.4445531445215,21.2954213909729,commune,162,0.813180463550411,43572,10,Auvergne-Rhône-Alpes,Rhône,45.797,4.842
Lille,59350,Maison,11.1735081799285,7.89335076382455,15.8167663876167,commune,3034,0.703257783304646,236710,35,Hauts-de-France,Nord,50.63,3.071
Tarbes,65440,Maison,8.30391984401634,6.58041522988307,10.4788349012853,commune,912,0.648927197066249,43955,15,Occitanie,Hautes-Pyrénées,43.233,0.078
Saint-Maur-des-Fossés,94068,Maison,20.0670424726802,12.4726825085298,32.285452093001,commune,421,0.786665189193339,75441,11,Île-de-France,Val-de-Marne,48.803,2.485
Maisons-Alfort,94046,Maison,20.2449794072439,12.4829307295884,32.8335709040055,commune,112,0.786665189193339,58068,5,Île-de-France,Val-de-Marne,48.801,2.431
Charenton-le-Pont,94018,Maison,23.512285569284,14.5067573409216,38.1082801414285,maille,7,0.786665189193339,29445,2,Île-de-France,Val-de-Marne,48.82,2.416
Décines-Charpieu,69275,Maison,13.6026764792125,9.2447791685443,20.0148434078016,commune,104,0.624692231989964,29731,17,Auvergne-Rhône-Alpes,Rhône,45.768,4.957
Saint-Priest,69290,Maison,12.7319163484527,8.74935310624671,18.5272776096169,commune,234,0.624692231989964,48822,30,Auvergne-Rhône-Alpes,Rhône,45.695,4.936
Vaulx-en-Velin,69256,Maison,11.7018517141213,8.03784486987692,17.0360756839762,commune,103,0.624692231989964,52139,21,Auvergne-Rhône-Alpes,Rhône,45.779,4.92
Bron,69029,Maison,14.0017206564424,9.62154083600238,20.3759652100071,commune,217,0.624692231989964,43049,10,Auvergne-Rhône-Alpes,Rhône,45.734,4.909
Vénissieux,69259,Maison,11.837739776683,8.11162298638134,17.2754679619271,commune,170,0.624692231989964,66363,15,Auvergne-Rhône-Alpes,Rhône,45.697,4.886
Saint-Herblain,44162,Maison,12.5749443858747,9.84710814248119,16.0584431510058,commune,390,0.84107793962088,49537,30,Pays de la Loire,Loire-Atlantique,47.211,-1.648
Rillieux-la-Pape,69286,Maison,12.7228517659189,8.55584902841727,18.9193330223465,commune,176,0.718104591415064,31247,15,Auvergne-Rhône-Alpes,Rhône,45.819,4.898
Villeurbanne,69266,Maison,13.2570863983603,8.96839356942404,19.5966354969942,commune,251,0.718104591415064,156928,15,Auvergne-Rhône-Alpes,Rhône,45.766,4.88
Dreux,28134,Maison,9.76565540265653,8.11410756011297,11.7533597794835,commune,367,0.783471920064981,30879,24,Centre-Val de Loire,Eure-et-Loir,48.736,1.371
Mulhouse,68224,Maison,10.3042862932711,7.6691916605481,13.8447858279377,commune,412,0.730524951239953,106341,22,Grand Est,Haut-Rhin,47.75,7.336
Châteauroux,36044,Maison,8.8301607806572,7.1651748618478,10.8820427855056,commune,1487,0.773979026679822,42968,25,Centre-Val de Loire,Indre,46.811,1.691
Saint-Louis,97414,Maison,10.7921509111966,8.2454976653324,14.1253476766761,commune,1475,0.60996717111532,53935,99,La Réunion,La Réunion,-21.287,55.409
